,cod_propiedad,tipo_propiedad,info_general,nombre_propiedad,precio_a,precio_b,n_dormitorios,n_banos,sup_terreno,sup_util,sup_construida,aval_fiscal,fecha_publicacion,fecha_plusvalia,valor_plusvalia,latitud,longitud
0,Código: 102129985,Departamento,Departamento en Venta Usado Macul - Metropolitana Ver ubicación,Exequiel Fernandez - Benito Rebolledo,$ 75.000.000,"UF 2.539,83",3,1,,60 m²,60 m²,15.327.109,29-04-2021,2020 1ºSem,40,-33.5034,-70.603
1,Código: 101045095,Casa,Casa en Venta Usado Vitacura - Metropolitana Ver ubicación,Manquehue Norte / Luis Pasteur,UF 20.000,$ 590.589.600,3,2,312 m²,130 m²,,180.029.194,25-11-2020,2020 1ºSem,107,-33.3871,-70.5768
2,Código: 1009,Departamento,Departamento en Venta Usado Vitacura - Metropolitana Ver ubicación,SAN DAMIAN / LAS CONDES,UF 12.200,$ 360.259.656,4,3,,140 m²,170 m²,,15-05-2019,2020 1ºSem,75,-33.3804,-70.5746
3,Código: 101072295,Casa,Casa en Venta Usado Vitacura - Metropolitana Ver ubicación,LUIS PASTEUR/ LO ARCAYA,UF 47.000,$ 1.387.885.560,6,6,1.400 m²,409 m²,,747.762.658,30-10-2019,2020 1ºSem,115,-33.3899,-70.579
4,Código: 6920,Departamento,Departamento en Venta Usado Vitacura - Metropolitana Ver ubicación,LUIS PASTEUR / MANQUEHUE,UF 11.900,$ 351.400.812,4,4,,155 m²,170 m²,157.867.243,15-06-2021,2020 1ºSem,81,-33.3858,-70.5751
5,Código: 101134651,Casa,Casa en Venta Usado Vitacura - Metropolitana Ver ubicación,"Luis Pasteur, Joaquin Cerda, Bradfor",UF 26.500,$ 782.531.220,4,4,500 m²,280 m²,,218.875.650,17-06-2020,2020 1ºSem,107,-33.3852,-70.5737
6,Código: Add487951,Casa,Casa en Venta Usado Vitacura - Metropolitana Ver ubicación,Casa rústica en barrio Borde Río,UF 23.900,$ 705.754.572,7,4,671 m²,,209 m²,355.991.680,30-06-2018,2020 1ºSem,98,-33.3813732,-70.5771794
7,Código: 420962,Departamento,Departamento en Venta Usado Vitacura - Metropolitana Ver ubicación,Juan XXIII / Manquehue,UF 12.500,$ 369.118.500,4,3,,130 m²,160 m²,154.957.357,29-05-2021,2020 1ºSem,81,-33.3883,-70.5744
8,,,,,UF 26.000,$ 767.766.480,4,4,490 m²,230 m²,,234.244.750,06-05-2021,2020 1ºSem,107,-33.3868,-70.5734
9,Código: 102005068,Departamento,Departamento en Venta Usado Vitacura - Metropolitana Ver ubicación,Manquehue Norte / Joaquín Cerda (Dos Estacionamientos),UF 15.900,$ 469.518.732,3,2,,161 m²,203 m²,160.519.949,07-06-2021,2020 1ºSem,75,-33.3839,-70.5777
10,Código: 101005059,Casa,Casa en Venta Usado Vitacura - Metropolitana Ver ubicación,Borde Río / Escrivá de Balaguer,UF 28.900,$ 853.401.972,5,2,638 m²,200 m²,,334.443.372,12-05-2021,2020 1ºSem,98,-33.3808,-70.5728
11,,,,,,,3,4,,140 m²,200 m²,195.189.163,18-05-2021,,,-33.3848,-70.5774
12,Código: 21043,Departamento,Departamento en Venta Usado Vitacura - Metropolitana Ver ubicación,Lo Castillo / Plaza Turquia,UF 16.500,$ 487.236.420,3,3,,140 m²,170 m²,173.732.652,23-06-2021,2020 1ºSem,75,-33.3814,-70.5716
13,Código: 101134804,Casa,Casa en Venta Usado Vitacura - Metropolitana Ver ubicación,Espoz,UF 32.000,$ 944.943.360,3,5,729 m²,285 m²,,366.473.870,04-09-2020,2020 1ºSem,107,-33.3869,-70.5799
14,Código: 101032388,Casa,Casa en Venta Usado Maipú - Metropolitana Ver ubicación,Camino el Bosque con Camino Melipilla,$ 140.000.000,"UF 4.741,02",5,4,144 m²,114 m²,,50.132.751,04-10-2019,2020 1ºSem,29,-33.5471,-70.7912
15,,,Casa en Venta Usado Las Condes - Metropolitana Ver ubicación,Maravillosa Casa de 3 pisos (421/600) - La Parva Alta,UF 58.000,$ 1.712.709.840,7,6,600 m²,421 m²,,,15-06-2019,,,-33.3341,-70.2888
16,Código: 102073029,Departamento,Departamento en Venta Usado Lo Barnechea - Metropolitana Ver ubicación,LA PARVA ALTA,UF 12.500,$ 369.118.500,5,4,,140 m²,156 m²,129.968.825,23-12-2019,,,-33.334,-70.2879
17,Código: 1028057069-6,Casa,Casa en Venta Usado Huechuraba - Metropolitana Ver ubicación,Caciques Chilenos norte,UF 8.500,$ 251.000.580,4,4,210 m²,145 m²,,78.216.943,05-06-2021,2020 1ºSem,44,-33.3557,-70.6674
18,Código: 101074113,Casa,Casa en Venta Usado Huechuraba - Metropolitana Ver ubicación,EXCELENTE ESTADO! COLEGIOS Y COMERCIO,UF 8.000,$ 236.235.840,4,4,365 m²,140 m²,,106.736.414,15-04-2020,2020 1ºSem,44,-33.3551,-70.6673
19,Código: 1028057068-2,Casa,Casa en Venta Usado Huechuraba - Metropolitana Ver ubicación,Los Caciques Chilenos norte,UF 8.500,$ 251.000.580,4,4,210 m²,145 m²,,78.216.943,10-06-2021,2020 1ºSem,44,-33.3557,-70.6674
20,Código: 101078205,Casa,Casa en Venta Usado Huechuraba - Metropolitana Ver ubicación,El Carmen con la Hacienda S.P,UF 9.700,$ 286.435.956,5,5,390 m²,139 m²,,118.186.995,26-04-2021,2020 1ºSem,44,-33.3536,-70.6623
21,Código: 101042219,Casa,Casa en Venta Usado Vitacura - Metropolitana Ver ubicación,Gran Via,UF 68.890,$ 2.034.285.877,5,4,5.500 m²,350 m²,350 m²,559.674.442,09-03-2020,2020 1ºSem,79,-33.3684,-70.5548
22,Código: 101161042,Casa,Casa en Venta Usado Vitacura - Metropolitana Ver ubicación,Gran Vía / Vía Esmeralda,UF 45.000,$ 1.328.826.600,5,4,5.000 m²,380 m²,,649.327.445,25-10-2019,2020 1ºSem,79,-33.3671,-70.5574
23,Código: 101039003,Casa,Casa en Venta Usado Vitacura - Metropolitana Ver ubicación,Lo Curro,UF 65.000,$ 1.919.416.200,5,5,5.000 m²,700 m²,,465.751.853,01-04-2019,2020 1ºSem,79,-33.3696,-70.5542
24,Código: 101035448,Casa,Casa en Venta Usado Vitacura - Metropolitana Ver ubicación,Lo Curro,UF 60.000,$ 1.771.768.800,3,3,6.000 m²,1.150 m²,1.150 m²,834.506.824,02-01-2020,2020 1ºSem,79,-33.3665,-70.5594
25,Código: 16643,Casa,Casa en Venta Usado Vitacura - Metropolitana Ver ubicación,Lo Curro Medio - Vitacura,UF 59.990,$ 1.771.473.505,4,5,6.657 m²,700 m²,200 m²,465.751.853,12-04-2021,2020 1ºSem,79,-33.3692,-70.5546
26,Código: 102008651,Departamento,Departamento en Venta Usado Lo Barnechea - Metropolitana Ver ubicación,Valle Escondido,UF 18.500,$ 546.295.380,3,3,,200 m²,220 m²,226.446.672,28-05-2021,,,-33.3524,-70.4929
27,Código: 102007998,Departamento,Departamento en Venta Usado Santiago - Metropolitana Ver ubicación,Esperanza / Barrio Yungay,$ 79.000.000,"UF 2.675,29",3,2,,50 m²,50 m²,35.976.490,22-05-2021,2020 1ºSem,38,-33.4365,-70.6759
28,Código: 101201473,Casa,Casa en Venta Usado Santiago - Metropolitana Ver ubicación,Metro Cumming,$ 125.000.000,"UF 4.233,06",4,1,107 m²,85 m²,,26.748.018,16-10-2020,,,-33.4358,-70.6719
29,Código: 28730,Departamento,Departamento en Venta Usado Santiago - Metropolitana Ver ubicación,Rafael Sotomayor,$ 72.000.000,"UF 2.438,24",2,1,,39 m²,39 m²,26.183.984,19-06-2021,2020 1ºSem,36,-33.4398,-70.6735
30,Código: 101037361,Casa,Casa en Venta Usado Las Condes - Metropolitana Ver ubicación,VITAL APOQUINDO,UF 14.900,$ 439.989.252,4,2,460 m²,188 m²,,172.097.770,03-06-2021,2020 1ºSem,65,-33.4058,-70.5351
31,Código: 101005007,Casa,Casa en Venta Usado Las Condes - Metropolitana Ver ubicación,General Blanche / Cardenal Newman,UF 12.900,$ 380.930.292,4,2,286 m²,152 m²,,125.596.246,29-01-2021,2020 1ºSem,76,-33.4073,-70.5381
32,Código: P4493,Casa,Casa en Venta Usado Las Condes - Metropolitana Ver ubicación,PAUL HARRIS / CAMINO EL ALBA,UF 24.000,$ 708.707.520,4,4,810 m²,288 m²,,,11-03-2019,2020 1ºSem,76,-33.4049,-70.5383
33,Código: 101041326,Casa,Casa en Venta Usado Las Condes - Metropolitana Ver ubicación,Camino El Alba / Camino El Algarrobo,UF 35.000,$ 1.033.531.800,4,4,1.518 m²,500 m²,1 m²,554.855.161,08-06-2019,2020 1ºSem,80,-33.4011,-70.5319
34,Código: 101132306,Casa,Casa en Venta Usado Las Condes - Metropolitana Ver ubicación,General Blanche/ Paul Harris,$ 460.000.000,"UF 15.577,65",3,3,288 m²,180 m²,,120.549.625,03-06-2021,2020 1ºSem,65,-33.409,-70.5368
35,Código: 1028026083-12,Casa,Casa en Venta Usado Colina - Metropolitana Ver ubicación,Avenida Casa Piedra,UF 10.800,$ 318.918.384,6,4,478 m²,160 m²,,109.331.733,05-06-2021,,,-33.2015,-70.6484
36,Código: 102008605,Departamento,Departamento en Venta Usado Las Condes - Metropolitana Ver ubicación,Riesco/luz,UF 16.800,$ 496.095.264,3,4,,200 m²,218 m²,247.262.981,28-05-2021,2020 1ºSem,82,-33.412,-70.6002
37,Código: 1564576,Casa,Casa en Venta Usado Providencia - Metropolitana Ver ubicación,Barrio las Flores/Providencia Los Narcisos,UF 16.990,$ 501.705.865,4,4,368 m²,289 m²,,263.561.636,25-02-2020,2020 1ºSem,88,-33.4115,-70.6022
38,Código: 102330503,Departamento,Departamento en Venta Usado Las Condes - Metropolitana Ver ubicación,Presidente Riesco / Club de Golf Los Leones,UF 29.000,$ 856.354.920,4,4,,390 m²,402 m²,442.782.957,25-09-2020,2020 1ºSem,82,-33.4119,-70.6008
39,Código: 102078235,Departamento,Departamento en Venta Usado Las Condes - Metropolitana Ver ubicación,"El Bosque norte, Ebro",UF 12.600,$ 372.071.448,4,3,,133 m²,133 m²,124.027.898,29-04-2021,2020 1ºSem,82,-33.4166,-70.6017
40,Código: 102375421,Departamento,Departamento en Venta Usado Las Condes - Metropolitana Ver ubicación,El Bosque Norte,UF 7.690,$ 227.081.701,:dormitoriosText:,2,,79 m²,90 m²,77.448.864,10-04-2021,2020 1ºSem,82,-33.4157,-70.6035
41,Código: 20634,Departamento,Departamento en Venta Usado Las Condes - Metropolitana Ver ubicación,Presidente Riesco,UF 14.000,$ 413.412.720,5,3,,180 m²,220 m²,189.453.072,03-12-2020,2020 1ºSem,82,-33.4117,-70.6014
42,Código: 102045325,Departamento,Departamento en Venta Usado Las Condes - Metropolitana Ver ubicación,LUZ / RIESCO / EL GOLF,UF 6.850,$ 202.276.938,2,2,,60 m²,77 m²,71.905.852,22-02-2021,2020 1ºSem,82,-33.4106,-70.6015
43,Código: 28098,Departamento,Departamento en Venta Usado Providencia - Metropolitana Ver ubicación,Luis Thayer Ojeda,UF 7.800,$ 230.329.944,3,2,,100 m²,100 m²,114.655.618,29-05-2021,2020 1ºSem,75,-33.4192,-70.6028
44,,,,,,,4,5,,500 m²,540 m²,442.782.957,19-02-2021,,,-33.4117,-70.6008
45,Código: 102078913,Departamento,Departamento en Venta Usado Las Condes - Metropolitana Ver ubicación,Helvecia con Avda Vitacura / Remodelado ( cod mjn),UF 4.100,$ 121.070.868,1,1,,37 m²,41 m²,46.581.772,29-06-2021,2020 1ºSem,82,-33.4152,-70.6042
46,Código: 101020877,Casa,Casa en Venta Usado Las Condes - Metropolitana Ver ubicación,"Sector el Golf, Las Condes",UF 20.320,$ 600.039.033,3,2,"156,3 m²",105 m²,105 m²,101.975.012,07-02-2019,,,-33.4104,-70.6016
47,Código: 43357,Departamento,Departamento en Venta Usado Providencia - Metropolitana Ver ubicación,Andres Bello/Providencia,UF 4.000,$ 118.117.920,1,1,,50 m²,50 m²,29.586.607,20-11-2019,2020 1ºSem,75,-33.4188,-70.6071
48,Código: 102008848,Departamento,Departamento en Venta Usado Las Condes - Metropolitana Ver ubicación,El Golf,UF 9.500,$ 280.530.060,2,2,,100 m²,114 m²,94.644.534,28-05-2021,2020 1ºSem,82,-33.4118,-70.6006
49,Código: 1576297,Departamento,Departamento en Venta Usado Las Condes - Metropolitana Ver ubicación,TOUR VIRTUAL / Cómodo departamento / Portada Vitacura,UF 5.400,$ 159.459.192,2,2,,70 m²,90 m²,92.408.127,30-04-2021,2020 1ºSem,82,-33.4123,-70.603
50,Código: 101021930,Casa,Casa en Venta Usado Las Condes - Metropolitana Ver ubicación,"El Golf, cercano a rotonda Perez Zujovic",UF 21.900,$ 646.695.612,3,2,146 m²,"134,6 m²","134,6 m²",114.188.940,07-02-2019,,,-33.4103,-70.6015
51,Código: P3013,Casa,Casa en Venta Usado Providencia - Metropolitana Ver ubicación,SANTA MARIA / EL CERRO,UF 15.300,$ 451.801.044,4,3,280 m²,240 m²,,,11-03-2019,2020 1ºSem,88,-33.4161,-70.6095
52,Código: 102008738,Departamento,Departamento en Venta Usado Las Condes - Metropolitana Ver ubicación,EL GOLF,UF 9.500,$ 280.530.060,2,2,,93 m²,111 m²,102.075.046,08-06-2021,2020 1ºSem,82,-33.4133,-70.6004
53,Código: 29274,Departamento,Departamento en Venta Usado Las Condes - Metropolitana Ver ubicación,Av. Vitacura,UF 4.480,$ 132.292.070,1,1,,37 m²,40 m²,46.581.772,01-07-2021,2020 1ºSem,82,-33.415,-70.604
54,Código: 1028081006-5,Departamento,Departamento en Venta Usado Santiago - Metropolitana Ver ubicación,Eleuterio Ramírez,UF 3.250,$ 95.970.810,2,2,,"50,4 m²","50,4 m²",49.871.629,08-06-2021,2020 1ºSem,55,-33.4484,-70.6474
55,Código: 102033302,Departamento,Departamento en Venta Usado Santiago - Metropolitana Ver ubicación,LIRA esquina Gral Jofre,UF 3.499,$ 103.323.650,2,2,,43 m²,43 m²,36.369.828,09-10-2020,2020 1ºSem,55,-33.4461,-70.6402
56,Código: 13510,Departamento,Departamento en Venta Usado Santiago - Metropolitana Ver ubicación,Santa Rosa,UF 2.600,$ 76.776.648,1,1,,35 m²,35 m²,38.943.799,05-11-2020,2020 1ºSem,55,-33.4491,-70.6449
57,Código: 1028024029-580,Departamento,Departamento en Venta Usado Santiago - Metropolitana Ver ubicación,Tarapacá,UF 3.835,$ 113.245.555,3,2,,72 m²,75 m²,48.757.638,26-05-2021,2020 1ºSem,55,-33.4469,-70.6481
58,Código: 914,Departamento,Departamento en Venta Usado Santiago - Metropolitana Ver ubicación,San Isidro/ Eleuterio Ramírez (914),UF 3.800,$ 112.212.024,2,2,,55 m²,,30.265.359,17-06-2021,2020 1ºSem,55,-33.4483,-70.6438
59,,,,,,,1,1,,48 m²,,27.818.422,25-06-2021,,,-33.4449,-70.6458
60,Código: 101376083,Casa,Casa en Venta Usado La Reina - Metropolitana Ver ubicación,Principe de Gales,UF 16.200,$ 478.377.576,4,3,450 m²,170 m²,,138.340.358,29-05-2021,2020 1ºSem,74,-33.4328,-70.5584
61,Código: 101037431,Casa,Casa en Venta Usado La Reina - Metropolitana Ver ubicación,VICENTE PEREZ ROSALES / VEINTITRES DE FEBRERO,UF 21.000,$ 620.119.080,6,4,540 m²,290 m²,,304.654.703,27-05-2021,2020 1ºSem,67,-33.4366,-70.5511
62,Código: 102375460,Departamento,Departamento en Venta Usado La Reina - Metropolitana Ver ubicación,Principe de Gales,UF 7.477,$ 220.791.921,3,3,,100 m²,115 m²,43.452.623,18-04-2021,,,-33.4394,-70.5576
63,Código: Add1089651,Departamento,Departamento en Venta Usado Lo Barnechea - Metropolitana Ver ubicación,Av. Las Condes a pasos de Mall Sport,UF 8.000,$ 236.235.840,2,2,86 m²,70 m²,70 m²,92.783.857,22-06-2021,2020 1ºSem,79,-33.3709988,-70.5134308
64,Código: 101078201,Casa,Casa en Venta Usado Las Condes - Metropolitana Ver ubicación,La Cabaña-San Damian-LAS CONDES,UF 25.000,$ 738.237.000,5,5,840 m²,360 m²,,297.296.298,24-04-2021,2020 1ºSem,87,-33.3748,-70.5119
65,Código: Add480957,Casa,Casa en Venta Usado Las Condes - Metropolitana Ver ubicación,Espectacular casa en San Damián,UF 53.000,$ 1.565.062.440,5,6,1.980 m²,,592 m²,922.261.287,11-06-2018,2020 1ºSem,87,-33.3787835,-70.5130712
66,Código: 102037523,Departamento,Departamento en Venta Usado Las Condes - Metropolitana Ver ubicación,Camino San Antonio/Las Condes,UF 7.241,$ 213.822.964,2,2,,60 m²,70 m²,82.582.297,26-06-2021,2020 1ºSem,82,-33.372,-70.5148
67,Código: 1549348,Departamento,Departamento en Venta Usado Las Condes - Metropolitana Ver ubicación,Mall Sport / Fray León.,UF 10.500,$ 310.059.540,3,2,,116 m²,116 m²,136.182.537,12-12-2018,2020 1ºSem,82,-33.372,-70.5124
68,Código: 1567304,Departamento,Departamento en Venta Usado Las Condes - Metropolitana Ver ubicación,"San Damián, espectacular duplex",UF 32.500,$ 959.708.100,4,4,,317 m²,,322.089.593,17-06-2020,2020 1ºSem,82,-33.3739,-70.5138
69,Código: 101070920,Casa,Casa en Venta Usado Las Condes - Metropolitana Ver ubicación,SAN DAMIÁN-FCO DE ASÍS,UF 110.000,$ 3.248.242.800,6,4,3.075 m²,826 m²,,1.489.865.366,01-10-2019,2020 1ºSem,87,-33.3793,-70.5112
70,Código: 1559381,Departamento,Departamento en Venta Usado Las Condes - Metropolitana Ver ubicación,Venta Penthouse en San Damián / Las Condes,UF 37.500,$ 1.107.355.500,4,4,,387 m²,,510.540.976,12-09-2019,2020 1ºSem,82,-33.3799,-70.5147
71,Código: 102033863,Departamento,Departamento en Venta Usado Las Condes - Metropolitana Ver ubicación,La Cabaña / Avda. Las Condes / Cantagallo,UF 7.000,$ 206.706.360,2,2,,78 m²,86 m²,114.066.557,01-06-2021,2020 1ºSem,82,-33.3716,-70.5127
72,Código: 102376531,Departamento,Departamento en Venta Usado Lo Barnechea - Metropolitana Ver ubicación,Líder Puente Nuevo,UF 8.600,$ 253.953.528,2,2,,112 m²,138 m²,116.820.703,27-06-2021,2020 1ºSem,79,-33.3709,-70.5133
73,Código: 101052450,Casa,Casa en Venta Usado Las Condes - Metropolitana Ver ubicación,FRANCISCO DE ASIS/ CAMINO LA VIÑA,UF 51.000,$ 1.506.003.480,5,4,1.980 m²,592 m²,,922.261.287,06-02-2019,2020 1ºSem,87,-33.3792,-70.5112
74,Código: 101064136,Casa,Casa en Venta Usado Las Condes - Metropolitana Ver ubicación,San fFancisco de Asis,UF 35.000,$ 1.033.531.800,4,5,600 m²,330 m²,,484.220.380,10-06-2020,2020 1ºSem,87,-33.3784,-70.5142
75,Código: 101047711,Casa,Casa en Venta Usado Las Condes - Metropolitana Ver ubicación,AV. LAS CONDES / PUENTE NUEVO,UF 58.000,$ 1.712.709.840,5,4,2.300 m²,840 m²,840 m²,1.046.035.989,07-02-2019,2020 1ºSem,87,-33.3729,-70.5103
76,,,,,,,,,,,,,,,,,
77,Código: 102375927,Departamento,Departamento en Venta Usado Las Condes - Metropolitana Ver ubicación,Mall Sport,UF 22.500,$ 664.413.300,3,4,,270 m²,302 m²,316.583.901,19-05-2021,2020 1ºSem,82,-33.3737,-70.5135
78,Código: 102078716,Departamento,Departamento en Venta Usado Lo Barnechea - Metropolitana Ver ubicación,LOS CACTUS-MALL LA DEHESA,UF 13.900,$ 410.459.772,3,3,,140 m²,165 m²,177.844.126,10-06-2021,2020 1ºSem,90,-33.3574,-70.5195
79,,,,,,,,,,,,,,,,,
80,Código: 101373650,Casa,Casa en Venta Usado Lo Barnechea - Metropolitana Ver ubicación,El Rodeo,UF 46.500,$ 1.373.120.820,6,4,1.278 m²,265 m²,,584.618.167,04-01-2021,2020 1ºSem,74,-33.3523,-70.5172
81,,,,,,:precioDespliegue:,5,4,2.781 m²,400 m²,400 m²,1.364.243.491,04-09-2019,,,-33.3526,-70.517
82,Código: 102044853,Departamento,Departamento en Venta Usado Lo Barnechea - Metropolitana Ver ubicación,El Rodeo / Mall Portal La Dehesa,UF 10.900,$ 321.871.332,4,4,,138 m²,153 m²,195.672.016,28-09-2020,2020 1ºSem,83,-33.3526,-70.513
83,Código: 102072493,Departamento,Departamento en Venta Usado Lo Barnechea - Metropolitana Ver ubicación,AV. LA DEHESA / ALBERT LE BLANC,UF 13.500,$ 398.647.980,3,4,,140 m²,170 m²,183.071.670,18-11-2019,2020 1ºSem,90,-33.3566,-70.519
84,Código: 101077755,Casa,Casa en Venta Usado Lo Barnechea - Metropolitana Ver ubicación,"DEHESA CENTRAL, PORTAL LA DEHESA",UF 21.900,$ 646.695.612,6,5,516 m²,200 m²,,290.024.655,12-03-2021,2020 1ºSem,87,-33.3579,-70.5198
85,Código: 102037463,Departamento,Departamento en Venta Usado Lo Barnechea - Metropolitana Ver ubicación,Av. La Dehesa,UF 12.950,$ 382.406.766,3,3,,140 m²,140 m²,154.378.832,02-06-2021,2020 1ºSem,83,-33.3545,-70.5169
86,Código: 101047316,Casa,Casa en Venta Usado Lo Barnechea - Metropolitana Ver ubicación,"Rodeo, La Dehesa",UF 40.000,$ 1.181.179.200,4,4,924 m²,328 m²,,495.697.557,06-05-2020,2020 1ºSem,74,-33.3524,-70.5152
87,Código: 102135341,Departamento,Departamento en Venta Usado Lo Barnechea - Metropolitana Ver ubicación,Vista despejada | Portal La Dehesa,UF 11.600,$ 342.541.968,2,3,,105 m²,132 m²,169.678.854,29-05-2021,2020 1ºSem,90,-33.3595,-70.5181
88,,Departamento,Departamento en Venta Usado Lo Barnechea - Metropolitana Ver ubicación,LAS ARAUCARIAS/ EL GABINO. COMO NUEVO,UF 8.400,$ 248.047.632,2,2,,86 m²,93 m²,122.831.516,10-04-2021,2020 1ºSem,83,-33.3527,-70.5131
89,Código: 102044828,Departamento,Departamento en Venta Usado Lo Barnechea - Metropolitana Ver ubicación,Comandante Malbec - Avda. La Dehesa,UF 18.600,$ 549.248.328,2,2,,128 m²,276 m²,179.479.628,21-09-2020,2020 1ºSem,83,-33.3591,-70.5152
90,Código: 101037797,Casa,Casa en Venta Usado Lo Barnechea - Metropolitana Ver ubicación,El Huinganal/ El Rodeo,UF 14.000,$ 413.412.720,4,3,315 m²,150 m²,150 m²,182.803.378,06-02-2019,2020 1ºSem,74,-33.3543,-70.5111
91,Código: 5597,Departamento,Departamento en Venta Usado Lo Barnechea - Metropolitana Ver ubicación,Robles,UF 10.000,$ 295.294.800,3,2,,128 m²,144 m²,178.265.976,06-03-2021,,,-33.3527,-70.5185
92,Código: 102078273,Departamento,Departamento en Venta Usado Lo Barnechea - Metropolitana Ver ubicación,Padre Alfredo Arteaga - Depto con Patio,UF 10.200,$ 301.200.696,2,3,,120 m²,190 m²,101.891.731,06-05-2021,2020 1ºSem,66,-33.3539,-70.5106
93,Código: 102045252,Departamento,Departamento en Venta Usado Lo Barnechea - Metropolitana Ver ubicación,Portal la Dehesa / Albert Le Banc,UF 12.300,$ 363.212.604,3,4,,140 m²,170 m²,176.737.707,18-01-2021,2020 1ºSem,90,-33.3568,-70.518
94,Código: 408835,Departamento,Departamento en Venta Usado Lo Barnechea - Metropolitana Ver ubicación,Portal La Dehesa,UF 13.990,$ 413.117.425,3,3,,155 m²,185 m²,214.570.191,17-04-2021,2020 1ºSem,83,-33.358,-70.5146
95,Código: 420957,Casa,Casa en Venta Usado Lo Barnechea - Metropolitana Ver ubicación,Dehesa Central,UF 24.002,$ 708.766.578,4,3,800 m²,196 m²,,305.286.142,26-05-2021,2020 1ºSem,74,-33.3505,-70.5128
96,Código: 1058,Casa,Casa en Venta Usado Lo Barnechea - Metropolitana Ver ubicación,CAMINO EL CORREGIDOR,UF 47.500,$ 1.402.650.300,6,8,2.061 m²,617 m²,,,12-06-2019,2020 1ºSem,74,-33.3519,-70.5142
97,Código: 101376098,Casa,Casa en Venta Usado Lo Barnechea - Metropolitana Ver ubicación,"El Gabino , Lo barnechea",UF 11.600,$ 342.541.968,3,2,303 m²,106 m²,,107.810.099,30-05-2021,2020 1ºSem,60,-33.3531,-70.5105
98,Código: 6938,Departamento,Departamento en Venta Usado Lo Barnechea - Metropolitana Ver ubicación,RAUL LABBE PADRE ALFREDO ARTEAGA,UF 6.700,$ 197.847.516,2,2,,92 m²,101 m²,111.159.306,15-06-2021,2020 1ºSem,83,-33.3541,-70.5125
99,Código: 102076530,Departamento,Departamento en Venta Usado Ñuñoa - Metropolitana Ver ubicación,Manuel Montt - Irarrázaval,UF 5.632,$ 166.310.031,2,1,,"44,7 m²","65,8 m²",140.157.699,17-11-2020,2020 1ºSem,68,-33.452,-70.6126
100,Código: 102076531,Departamento,Departamento en Venta Usado Ñuñoa - Metropolitana Ver ubicación,Manuel Montt - Irarrázaval,UF 5.478,$ 161.762.491,2,2,,"52,4 m²","67,5 m²",140.157.699,17-11-2020,2020 1ºSem,68,-33.452,-70.6126
101,Código: 102076525,Departamento,Departamento en Venta Usado Ñuñoa - Metropolitana Ver ubicación,Manuel Montt - Irarrázaval,UF 4.806,$ 141.918.680,1,1,,"32,3 m²","51,2 m²",140.157.699,17-11-2020,2020 1ºSem,68,-33.452,-70.6126
102,Código: 1028018284-26,Departamento,Departamento en Venta Usado Ñuñoa - Metropolitana Ver ubicación,Av Irarrazaval,UF 3.700,$ 109.259.076,1,1,,"40,7 m²","40,7 m²",38.645.342,14-01-2021,2020 1ºSem,68,-33.4534,-70.6129
103,,,,,UF 5.180,$ 152.962.706,2,1,,"45,7 m²","53,8 m²",92.663.067,17-11-2020,2020 1ºSem,68,-33.452,-70.6126
104,Código: Add973924,Casa,Casa en Venta Usado Ñuñoa - Metropolitana Ver ubicación,Carmen Covarrubias,$ 550.000.000,"UF 18.625,45",6,5,341 m²,214 m²,214 m²,136.784.441,01-12-2020,2020 1ºSem,39,-33.453795,-70.6113847
105,Código: 1028037052-96,Departamento,Departamento en Venta Usado Ñuñoa - Metropolitana Ver ubicación,AVENIDA JOSE DOMINGO CAÑAS,UF 6.350,$ 187.512.198,3,2,,100 m²,100 m²,96.673.047,26-06-2021,2020 1ºSem,68,-33.4564,-70.6134
106,Código: 102076553,Departamento,Departamento en Venta Usado Ñuñoa - Metropolitana Ver ubicación,Manuel Montt - Irarrázaval,UF 8.603,$ 254.042.116,2,1,,51 m²,182 m²,123.937.701,17-11-2020,2020 1ºSem,68,-33.452,-70.6126
107,Código: 1559877,Casa,Casa en Venta Usado Ñuñoa - Metropolitana Ver ubicación,Casa Antonio Varás refaccionada,UF 14.835,$ 438.069.835,5,2,214 m²,172 m²,,47.828.139,03-01-2020,2020 1ºSem,39,-33.4507,-70.6117
108,Código: 28312,Departamento,Departamento en Venta Usado Ñuñoa - Metropolitana Ver ubicación,Avenida Irarrazaval,UF 4.400,$ 129.929.712,2,2,,70 m²,70 m²,57.643.727,05-06-2021,2020 1ºSem,68,-33.4538,-70.6103
109,,,,,UF 5.240,$ 154.734.475,2,2,,"53,4 m²","57,4 m²",123.937.701,17-11-2020,2020 1ºSem,68,-33.452,-70.6126
110,Código: 1028057048-68,Departamento,Departamento en Venta Usado Ñuñoa - Metropolitana Ver ubicación,Jose Domingo Cañas,UF 5.100,$ 150.600.348,2,2,,81 m²,81 m²,56.374.967,03-06-2021,2020 1ºSem,68,-33.4565,-70.6117
111,Código: 51931,Departamento,Departamento en Venta Usado Ñuñoa - Metropolitana Ver ubicación,Duble Almeyda (LF)/Capitán Fuentes (LF),UF 7.000,$ 206.706.360,3,2,,98 m²,,71.744.662,23-03-2021,2020 1ºSem,68,-33.4543,-70.6152
112,Código: 102076523,Departamento,Departamento en Venta Usado Ñuñoa - Metropolitana Ver ubicación,Manuel Montt - Irarrázaval,UF 4.839,$ 142.893.153,2,1,,"45,7 m²","49,9 m²",140.157.699,16-11-2020,2020 1ºSem,68,-33.452,-70.6126
113,Código: 102005192,Departamento,Departamento en Venta Usado Ñuñoa - Metropolitana Ver ubicación,lincoyan 1050,UF 5.500,$ 162.412.140,2,2,,60 m²,70 m²,63.823.128,17-06-2021,2020 1ºSem,68,-33.4523,-70.6198
114,,,,,,,,,,,,,,,,,
115,,,,,,,,,,,,,,,,,
116,Código: 102076528,Departamento,Departamento en Venta Usado Ñuñoa - Metropolitana Ver ubicación,Manuel Montt - Irarrázaval,UF 4.945,$ 146.023.278,2,1,,"45,7 m²","53,8 m²",123.937.701,17-11-2020,2020 1ºSem,68,-33.452,-70.6126
117,,,,,,,,,,,,,,,,,
118,,,,,,,,,,,,,,,,,
119,,,,,,,,,,,,,,,,,
120,Código: 1028037104-21,Departamento,Departamento en Venta Usado Ñuñoa - Metropolitana Ver ubicación,Duble Almeyda,UF 5.271,$ 155.649.889,3,2,,71 m²,73 m²,36.757.258,06-04-2021,2020 1ºSem,68,-33.4549,-70.6129
121,Código: 102076522,Departamento,Departamento en Venta Usado Ñuñoa - Metropolitana Ver ubicación,Manuel Montt - Irarrázaval,UF 4.230,$ 124.909.700,2,1,,"44,6 m²","46,7 m²",123.937.701,17-11-2020,2020 1ºSem,68,-33.452,-70.6126
122,Código: 102006765,Departamento,Departamento en Venta Usado Ñuñoa - Metropolitana Ver ubicación,DUBLE ALMEYDA CON CARMEN COVARRUBIAS,UF 3.800,$ 112.212.024,1,1,,35 m²,40 m²,38.622.589,15-06-2021,2020 1ºSem,68,-33.4547,-70.6108
123,Código: 1028024029-586,Departamento,Departamento en Venta Usado Ñuñoa - Metropolitana Ver ubicación,Duble Almeyda,UF 6.950,$ 205.229.886,3,2,,95 m²,106 m²,107.664.045,08-06-2021,2020 1ºSem,68,-33.4543,-70.6133
124,Código: 102376451,Departamento,Departamento en Venta Usado Ñuñoa - Metropolitana Ver ubicación,Sucre - Irarrázaval,UF 3.650,$ 107.782.602,1,1,,42 m²,42 m²,36.619.368,20-06-2021,2020 1ºSem,68,-33.4546,-70.6152
125,Código: 101372596,Casa,Casa en Venta Usado Las Condes - Metropolitana Ver ubicación,Fernando Aragon/Flandes,$ 299.000.000,"UF 10.125,47",4,2,132 m²,104 m²,,63.783.378,29-05-2021,2020 1ºSem,84,-33.4265,-70.5794
126,Código: 5950,Departamento,Departamento en Venta Usado Las Condes - Metropolitana Ver ubicación,Avenida Cristobal Colón,UF 11.500,$ 339.589.020,4,3,,123 m²,140 m²,149.194.451,05-11-2020,2020 1ºSem,73,-33.4221,-70.5762
127,Código: 102152074,Departamento,Departamento en Venta Usado Las Condes - Metropolitana Ver ubicación,Latadia/ Isabel la Catolica,UF 13.000,$ 383.883.240,3,3,,124 m²,144 m²,168.791.610,30-09-2020,2020 1ºSem,66,-33.4288,-70.5761
128,Código: 102078289,Departamento,Departamento en Venta Usado Las Condes - Metropolitana Ver ubicación,Avda Cristóbal Colón con Américo Vespucio,UF 10.800,$ 318.918.384,4,3,,123 m²,143 m²,149.194.451,06-05-2021,2020 1ºSem,73,-33.4221,-70.5762
129,Código: 1578470,Departamento,Departamento en Venta Usado Las Condes - Metropolitana Ver ubicación,Tour Virtual / Gran departamento Felipe II,UF 18.500,$ 546.295.380,3,3,,158 m²,225 m²,180.233.055,26-06-2021,2020 1ºSem,66,-33.4274,-70.577
130,Código: 1028079006-96,Departamento,Departamento en Venta Usado Las Condes - Metropolitana Ver ubicación,Tadeo Reyes,UF 8.690,$ 256.611.181,2,2,,86 m²,92 m²,111.682.078,15-06-2021,2020 1ºSem,73,-33.424,-70.5772
131,Código: 102010901,Departamento,Departamento en Venta Usado Las Condes - Metropolitana Ver ubicación,Latadia - Vespucio Sur,UF 18.500,$ 546.295.380,3,3,,158 m²,225 m²,180.233.055,18-05-2021,2020 1ºSem,66,-33.4274,-70.577
132,Código: 18510,Departamento,Departamento en Venta Usado Las Condes - Metropolitana Ver ubicación,Latadía,UF 12.000,$ 354.353.760,4,4,,140 m²,160 m²,168.791.610,05-11-2020,2020 1ºSem,66,-33.4288,-70.5761
133,Código: 51630,Departamento,Departamento en Venta Usado Las Condes - Metropolitana Ver ubicación,(MR) VESPUCIO SUR/AV CRISTOBAL COLÓN,UF 9.000,$ 265.765.320,2,2,,88 m²,,111.682.078,09-03-2021,2020 1ºSem,73,-33.4239,-70.5772
134,Código: 102062692,Departamento,Departamento en Venta Usado Las Condes - Metropolitana Ver ubicación,avda. cristobal colon,UF 10.990,$ 324.528.985,3,3,,140 m²,160 m²,157.669.592,17-04-2019,2020 1ºSem,73,-33.4222,-70.5747
135,Código: 53117,Departamento,Departamento en Venta Usado Las Condes - Metropolitana Ver ubicación,FITZ ROY MARTIN DE ZAMORA-- FELIZ DE AMESTI/Vespucio,UF 11.950,$ 352.877.286,4,3,,147 m²,,149.194.451,04-06-2021,2020 1ºSem,73,-33.4219,-70.5769
136,Código: 101005067,Casa,Casa en Venta Usado Las Condes - Metropolitana Ver ubicación,Sebastián Elcano / Carlos Alvarado,UF 14.500,$ 428.177.460,3,2,361 m²,182 m²,,107.656.012,02-06-2021,,,-33.429,-70.5718
137,Código: 102078252,Departamento,Departamento en Venta Usado Las Condes - Metropolitana Ver ubicación,Esquina Martin Alonso Pinzón,UF 8.900,$ 262.812.372,4,3,,"102,9 m²","117,9 m²",101.275.827,30-04-2021,2020 1ºSem,73,-33.4218,-70.5744
138,Código: 1028046036-20,Departamento,Departamento en Venta Usado Las Condes - Metropolitana Ver ubicación,Rey Gustavo Adolfo,UF 24.990,$ 737.941.705,4,4,,"369,9 m²","434,4 m²",581.986.592,15-06-2021,2020 1ºSem,73,-33.4202,-70.577
139,Código: 1028071027-28,Departamento,Departamento en Venta Usado Las Condes - Metropolitana Ver ubicación,Avenida Américo Vespucio sur,UF 7.290,$ 215.269.909,3,2,,104 m²,104 m²,67.981.580,17-06-2021,2020 1ºSem,75,-33.4279,-70.5747
140,Código: 102062537,Departamento,Departamento en Venta Usado Las Condes - Metropolitana Ver ubicación,Latadia/ Payador taguada,UF 13.150,$ 388.312.662,3,3,,119 m²,146 m²,159.740.695,05-04-2019,2020 1ºSem,66,-33.4288,-70.5766
141,,,,,,,,,,,,,,,,,
142,Código: :codigo:,,:direccion: Ver ubicación,:titulo:,:precioUF:,$ 251.000.580,3,2,,80 m²,110 m²,55.212.768,15-04-2021,2020 1ºSem,75,-33.4291,-70.5745
143,Código: 1555779,Departamento,Departamento en Venta Usado Las Condes - Metropolitana Ver ubicación,Excelente Penthouse!! Rey Gustavo Adolfo - Felix de Amesti,UF 27.500,$ 812.060.700,4,3,,"369,9 m²","434,4 m²",581.986.592,20-07-2019,2020 1ºSem,73,-33.4202,-70.577
144,Código: 101005015,Casa,Casa en Venta Usado Las Condes - Metropolitana Ver ubicación,Vaticano / Vespucio,UF 10.085,$ 297.804.805,3,2,132 m²,104 m²,,63.783.378,02-06-2021,2020 1ºSem,84,-33.4263,-70.5784
145,Código: 102374689,Departamento,Departamento en Venta Usado Las Condes - Metropolitana Ver ubicación,Sebastian Elcano,UF 10.100,$ 298.247.748,3,3,,125 m²,132 m²,57.385.352,01-03-2021,2020 1ºSem,73,-33.4218,-70.5744
146,Código: 102135376,Departamento,Departamento en Venta Usado Las Condes - Metropolitana Ver ubicación,Penthouse / Martín de Zamora,UF 15.900,$ 469.518.732,3,4,,140 m²,220 m²,136.014.493,08-06-2021,2020 1ºSem,73,-33.4203,-70.578
147,Código: 14508,Departamento,Departamento en Venta Usado Las Condes - Metropolitana Ver ubicación,Vasco de Gama,UF 12.600,$ 372.071.448,3,3,,143 m²,156 m²,115.387.677,05-11-2020,2020 1ºSem,75,-33.4234,-70.5752
148,Código: 53063,Departamento,Departamento en Venta Usado Las Condes - Metropolitana Ver ubicación,Av. Cristobal Colon/Martin Alonso Pinzón,UF 6.300,$ 186.035.724,3,3,,86 m²,,74.419.570,02-06-2021,2020 1ºSem,73,-33.4205,-70.5757
149,Código: 102073185,Departamento,Departamento en Venta Usado Las Condes - Metropolitana Ver ubicación,RODRIGO DE TRIANA/FLANDES,UF 9.200,$ 271.671.216,4,3,,140 m²,150 m²,126.201.537,29-05-2021,2020 1ºSem,73,-33.4245,-70.5795
150,Código: 101072829,Casa,Casa en Venta Usado Lo Barnechea - Metropolitana Ver ubicación,Bernardo Larrain / Los Nogales,UF 65.000,$ 1.919.416.200,7,5,1.475 m²,745 m²,,956.504.809,09-12-2019,2020 1ºSem,67,-33.3373,-70.5253
151,Código: 101030549,Casa,Casa en Venta Usado Lo Barnechea - Metropolitana Ver ubicación,Nogales Dehesa,UF 36.500,$ 1.077.826.020,4,4,1.480 m²,540 m²,,630.320.354,02-01-2020,2020 1ºSem,67,-33.3319,-70.5254
152,Código: 101037465,Casa,Casa en Venta Usado Lo Barnechea - Metropolitana Ver ubicación,Bernardo Larrain,UF 120.000,$ 3.543.537.600,5,4,3.976 m²,645 m²,,1.236.876.859,27-05-2021,2020 1ºSem,67,-33.3334,-70.5263
153,Código: 101070980,Casa,Casa en Venta Usado Lo Barnechea - Metropolitana Ver ubicación,Parroquia Santa Teresa de los Andes,UF 48.000,$ 1.417.415.040,7,4,1.250 m²,680 m²,,772.524.430,04-10-2019,2020 1ºSem,67,-33.3344,-70.5277
154,Código: 1028076006-231,Casa,Casa en Venta Usado Lo Barnechea - Metropolitana Ver ubicación,Pedro Lira Urquieta,UF 52.000,$ 1.535.532.960,7,6,2.466 m²,868 m²,,1.158.767.986,16-06-2021,2020 1ºSem,67,-33.3351,-70.5298
155,Código: 101031856,Casa,Casa en Venta Usado Lo Barnechea - Metropolitana Ver ubicación,La Dehesa,UF 48.000,$ 1.417.415.040,6,4,1.283 m²,760 m²,,772.524.430,02-01-2020,2020 1ºSem,67,-33.3388,-70.5268
156,Código: 101072894,Casa,Casa en Venta Usado Lo Barnechea - Metropolitana Ver ubicación,AVDA. LA DEHESA,UF 31.200,$ 921.319.776,5,5,1.350 m²,450 m²,,454.650.690,12-12-2019,2020 1ºSem,67,-33.337,-70.528
157,Código: 101078220,Casa,Casa en Venta Usado Lo Barnechea - Metropolitana Ver ubicación,El molino,UF 30.000,$ 885.884.400,3,3,1.200 m²,250 m²,,348.258.212,29-04-2021,2020 1ºSem,67,-33.3345,-70.5246
158,Código: 101010890,Casa,Casa en Venta Usado Lo Barnechea - Metropolitana Ver ubicación,Panorámica Sur - Av. La Dehesa,UF 59.000,$ 1.742.239.320,4,6,2.640 m²,630 m²,,919.627.930,08-05-2021,2020 1ºSem,67,-33.3314,-70.5254
159,Código: 101231839,Casa,Casa en Venta Usado Lo Barnechea - Metropolitana Ver ubicación,Bernardo Larraín,UF 40.000,$ 1.181.179.200,5,6,1.350 m²,700 m²,,805.455.673,25-09-2020,2020 1ºSem,67,-33.3311,-70.5295
160,Código: 101033748,Casa,Casa en Venta Usado Lo Barnechea - Metropolitana Ver ubicación,Lomas de la Dehesa,UF 29.900,$ 882.931.452,7,6,1.668 m²,385 m²,,523.775.298,28-03-2021,2020 1ºSem,67,-33.3381,-70.528
161,Código: 101005319,Casa,Casa en Venta Usado Lo Barnechea - Metropolitana Ver ubicación,PARROQUIA SANTA TERESA / PEDRO LIRA URQUIETA / CLUB DE GOLF LOMAS DE LA DEHESA,UF 33.000,$ 974.472.840,5,5,1.490 m²,420 m²,,528.766.513,04-05-2021,2020 1ºSem,67,-33.3358,-70.5281
162,Código: 101047146,Casa,Casa en Venta Usado Lo Barnechea - Metropolitana Ver ubicación,Los Nogales,UF 38.000,$ 1.122.120.240,6,5,1.400 m²,580 m²,580 m²,567.841.049,06-02-2019,2020 1ºSem,67,-33.3325,-70.5279
163,Código: 1028018067-239,Departamento,Departamento en Venta Usado Ñuñoa - Metropolitana Ver ubicación,Diego de Almagro,UF 8.500,$ 251.000.580,4,3,,103 m²,121 m²,109.408.025,03-06-2021,2020 1ºSem,81,-33.4368,-70.5812
164,Código: 101005012,Casa,Casa en Venta Usado Ñuñoa - Metropolitana Ver ubicación,Eliécier Parada / Diego de Almagro,UF 17.787,$ 525.240.860,4,2,480 m²,228 m²,,156.334.500,22-02-2021,2020 1ºSem,72,-33.4384,-70.5835
165,Código: 50170,Departamento,Departamento en Venta Usado Ñuñoa - Metropolitana Ver ubicación,La Giralda/Coventry,UF 6.000,$ 177.176.880,2,2,,80 m²,,72.361.172,26-06-2021,2020 1ºSem,81,-33.4377,-70.5809
166,Código: 102078211,Departamento,Departamento en Venta Usado Providencia - Metropolitana Ver ubicación,Bilbao / Amapolas / Metro Bilbao,$ 130.000.000,"UF 4.402,38",2,1,,58 m²,66 m²,30.887.635,27-04-2021,2020 1ºSem,75,-33.4336,-70.5868
167,Código: 102375980,Departamento,Departamento en Venta Usado Providencia - Metropolitana Ver ubicación,Plaza Dinamarca,UF 7.750,$ 228.853.470,3,2,,85 m²,98 m²,22.960.803,24-05-2021,2020 1ºSem,75,-33.4385,-70.5882
168,,,,,,,,,,,,,,,,,
169,,,,,,,,,,,,,,,,,
170,Código: 1578424,Casa,Casa en Venta Usado Providencia - Metropolitana Ver ubicación,Excelente casa Amapolas/ Dinamarca,UF 21.500,$ 634.883.820,4,4,480 m²,199 m²,,194.243.506,23-06-2021,2020 1ºSem,73,-33.4359,-70.5879
171,Código: 1578330,Casa,Casa en Venta Usado Providencia - Metropolitana Ver ubicación,Tour Virtual - Casa El Belloto,UF 19.800,$ 584.683.704,4,4,243 m²,237 m²,,162.074.750,26-06-2021,2020 1ºSem,73,-33.4365,-70.5858
172,Código: 102045301,Departamento,Departamento en Venta Usado Ñuñoa - Metropolitana Ver ubicación,Diego de Almagro / La Giralda,UF 9.400,$ 277.577.112,3,3,,108 m²,126 m²,119.468.245,09-02-2021,2020 1ºSem,81,-33.4371,-70.5824
173,Código: 101132170,Casa,Casa en Venta Usado Vitacura - Metropolitana Ver ubicación,las Hualtatas/ Vitacura,UF 11.500,$ 339.589.020,4,2,242 m²,132 m²,,93.341.508,29-05-2021,2020 1ºSem,108,-33.3891,-70.5622
174,Código: 102015488,Departamento,Departamento en Venta Usado Vitacura - Metropolitana Ver ubicación,Sport Frances / Estadio Croata,UF 15.300,$ 451.801.044,3,2,,140 m²,168 m²,130.084.934,16-03-2021,2020 1ºSem,86,-33.3833,-70.5604
175,Código: 300932,Departamento,Departamento en Venta Usado Vitacura - Metropolitana Ver ubicación,Carmen Fariña/Filomena Comas,UF 16.800,$ 496.095.264,3,3,,139 m²,155 m²,182.740.988,09-02-2021,2020 1ºSem,86,-33.3831,-70.5638
176,Código: 101135332,Casa,Casa en Venta Usado Vitacura - Metropolitana Ver ubicación,"Sport Francés, Juan XXIII",UF 22.000,$ 649.648.560,4,2,398 m²,205 m²,,192.191.273,25-05-2021,2020 1ºSem,88,-33.3839,-70.5633
177,Código: 101132409,Casa,Casa en Venta Usado Vitacura - Metropolitana Ver ubicación,Sport Frances,UF 12.000,$ 354.353.760,3,3,240 m²,"114,2 m²",,96.204.595,22-05-2021,2020 1ºSem,108,-33.3876,-70.5637
178,Código: 102076135,Departamento,Departamento en Venta Usado Vitacura - Metropolitana Ver ubicación,SPORT FRANCES,UF 30.500,$ 900.649.140,4,4,,268 m²,298 m²,379.766.409,21-10-2020,2020 1ºSem,78,-33.3821,-70.5687
179,,,,,,,,,,,,,,,,,
180,,,Casa en Venta Usado Vitacura - Metropolitana Ver ubicación,Mediterránea: Sport Francés / Lo Beltrán,UF 17.900,$ 528.577.692,4,4,250 m²,176 m²,,173.238.620,24-06-2021,2020 1ºSem,88,-33.3842,-70.5618
181,Código: 101375921,Casa,Casa en Venta Usado Lo Prado - Metropolitana Ver ubicación,"Ecuador, las Rejas",UF 6.400,$ 188.988.672,5,4,210 m²,153 m²,,44.737.436,25-05-2021,2020 1ºSem,33,-33.4538,-70.7075
182,Código: 1028026045-177,Departamento,Departamento en Venta Usado Estación Central - Metropolitana Ver ubicación,SANTA PETRONILA,UF 1.500,$ 44.294.220,1,1,,32 m²,32 m²,17.723.090,13-05-2021,,,-33.4536,-70.7046
183,Código: :codigo:,,:direccion: Ver ubicación,:titulo:,:precioUF:,:precioDespliegue:,:dormitoriosText:,:,:superficieTerreno: m²,:metrosUtiles: m²,:metrosConstruidos: m²,:avaluoFiscalTotalPesos:,:fechaPublicacionDespliegue:,2020 1ºSem,48,-33.4554,-70.7032
184,Código: 1028050036-167,Departamento,Departamento en Venta Usado Lo Prado - Metropolitana Ver ubicación,AV. LIBERTADOR BERNARDO OHIGGINS,UF 2.500,$ 73.823.700,3,1,,53 m²,53 m²,25.905.352,21-05-2021,2020 1ºSem,29,-33.4572,-70.7058
185,Código: 47829,Departamento,Departamento en Venta Usado Estación Central - Metropolitana Ver ubicación,ALAMEDA/METRO ECUADOR,UF 1.900,$ 56.106.012,1,1,,36 m²,2 m²,31.544.272,28-04-2021,2020 1ºSem,48,-33.4554,-70.7022
186,Código: 102372355,Departamento,Departamento en Venta Usado Estación Central - Metropolitana Ver ubicación,"Av, Ecuador con la Victoria",$ 82.000.000,"UF 2.776,89",3,2,,57 m²,57 m²,40.732.089,27-10-2020,2020 1ºSem,37,-33.4548,-70.7033
187,Código: 102375919,Departamento,Departamento en Venta Usado Estación Central - Metropolitana Ver ubicación,Radal / av. libertador Bernardo O,$ 80.000.000,"UF 2.709,16",2,2,,55 m²,55 m²,31.258.899,19-05-2021,2020 1ºSem,48,-33.4559,-70.7014
188,Código: 52195,Departamento,Departamento en Venta Usado Estación Central - Metropolitana Ver ubicación,METRO ECUADOR (AM)/AV ALAMEDA (AM),UF 2.750,$ 81.206.070,2,1,,42 m²,,29.835.912,02-04-2021,2020 1ºSem,48,-33.4556,-70.7
189,Código: 102262890,Departamento,Departamento en Venta Usado Estación Central - Metropolitana Ver ubicación,Metro las rejas,$ 66.000.000,"UF 2.235,05",3,1,,43 m²,43 m²,30.423.380,08-03-2021,2020 1ºSem,44,-33.459,-70.703
190,Código: 102322416,Departamento,Departamento en Venta Usado Estación Central - Metropolitana Ver ubicación,Metro Las Rejas,$ 58.000.000,"UF 1.964,14",1,1,,40 m²,42 m²,26.915.213,10-12-2020,,,-33.4543,-70.7055
191,Código: 1028063005-71,Departamento,Departamento en Venta Usado Estación Central - Metropolitana Ver ubicación,Radal,UF 2.900,$ 85.635.492,2,2,,52 m²,52 m²,46.089.715,11-06-2021,2020 1ºSem,48,-33.4554,-70.7015
192,Código: 102006059,Departamento,Departamento en Venta Usado Estación Central - Metropolitana Ver ubicación,LAS REJAS NORTES,$ 54.573.000,"UF 1.848,09",2,1,,38 m²,38 m²,23.835.326,18-05-2021,2020 1ºSem,48,-33.4565,-70.7052
193,Código: 52393,Departamento,Departamento en Venta Usado Estación Central - Metropolitana Ver ubicación,EL BELLOTO (AG)/LAS ACACIAS,$ 75.000.000,"UF 2.539,83",3,2,,94 m²,,12.543.592,14-04-2021,,,-33.4595,-70.7085
194,Código: 1028063005-70,Departamento,Departamento en Venta Usado Estación Central - Metropolitana Ver ubicación,Radal,UF 2.900,$ 85.635.492,2,2,,52 m²,52 m²,46.089.715,11-06-2021,2020 1ºSem,48,-33.4554,-70.7015
195,Código: 102078748,Departamento,Departamento en Venta Usado Las Condes - Metropolitana Ver ubicación,Parque Arauco- Córdova-Los Militares,UF 14.900,$ 439.989.252,3,3,,170 m²,220 m²,211.483.479,12-06-2021,2020 1ºSem,88,-33.4061,-70.5795
196,Código: 53269,Departamento,Departamento en Venta Usado Las Condes - Metropolitana Ver ubicación,Flor de Azucenas/Los Militares / 2 Estac.,UF 11.650,$ 344.018.442,4,4,,170 m²,,160.796.487,16-06-2021,2020 1ºSem,81,-33.4083,-70.5744
197,,,,,,,,,,,,,,,,,-70.5719
198,Código: 1028064001-116,Departamento,Departamento en Venta Usado Las Condes - Metropolitana Ver ubicación,Carlos Martel,UF 9.950,$ 293.818.326,3,2,,117 m²,125 m²,130.736.064,13-05-2021,2020 1ºSem,88,-33.4081,-70.5722
199,Código: 42638,Departamento,Departamento en Venta Usado Las Condes - Metropolitana Ver ubicación,LOS MILITARES (AM)/PRESIDENTE RIESCO (AM),UF 9.200,$ 271.671.216,2,2,,154 m²,,105.227.384,31-12-2020,2020 1ºSem,88,-33.4071,-70.5753
200,Código: 28630,Departamento,Departamento en Venta Usado Las Condes - Metropolitana Ver ubicación,Los Militares,UF 11.500,$ 339.589.020,4,3,,121 m²,131 m²,173.800.820,15-06-2021,2020 1ºSem,88,-33.4059,-70.5714
201,Código: 102078504,Departamento,Departamento en Venta Usado Vitacura - Metropolitana Ver ubicación,TOTALMENTE REMODELADO - VISTA DESPEJADA PST,UF 18.000,$ 531.530.640,4,4,,162 m²,196 m²,197.731.545,08-06-2021,2020 1ºSem,89,-33.4007,-70.5797
202,Código: 102373067,Departamento,Departamento en Venta Usado Las Condes - Metropolitana Ver ubicación,Parque Arauco,UF 10.500,$ 310.059.540,3,3,,130 m²,136 m²,108.600.785,26-11-2020,2020 1ºSem,70,-33.4034,-70.5794
203,Código: Add691825,Departamento,Departamento en Venta Usado Las Condes - Metropolitana Ver ubicación,METRO MANQUEHUE / WARREN SMITH,UF 8.500,$ 251.000.580,3,3,,90 m²,100 m²,105.636.199,22-05-2021,2020 1ºSem,81,-33.4090015,-70.574902
204,Código: Add691825,Departamento,Departamento en Venta Usado Las Condes - Metropolitana Ver ubicación,METRO MANQUEHUE / WARREN SMITH,UF 8.500,$ 251.000.580,3,3,,90 m²,100 m²,105.636.199,22-05-2021,2020 1ºSem,81,-33.4090015,-70.574902
205,Código: Add1056616,Departamento,Departamento en Venta Usado Las Condes - Metropolitana Ver ubicación,SE VENDE-Lindo Depto Sector Alonso de Córdova-Los Militares-Las Condes,UF 9.700,$ 286.435.956,3,2,,,93 m²,104.423.972,23-04-2021,2020 1ºSem,88,-33.4056248,-70.5725558
206,Código: Add1083548,Departamento,Departamento en Venta Usado Las Condes - Metropolitana Ver ubicación,La Gloria Metro Manquehue,UF 12.600,$ 372.071.448,4,3,,1.370 m²,143 m²,173.818.751,10-06-2021,2020 1ºSem,81,-33.4092149,-70.5773885
207,Código: 102010942,Departamento,Departamento en Venta Usado Las Condes - Metropolitana Ver ubicación,Flor de Azucena - Los Militares,UF 12.800,$ 377.977.344,3,3,,"134,9 m²","134,9 m²",138.954.259,02-06-2021,2020 1ºSem,81,-33.4081,-70.5743
208,,,,Los MILITARES,UF 12.500,$ 369.118.500,4,3,,135 m²,121 m²,173.800.820,05-11-2020,2020 1ºSem,88,-33.4059,-70.5714
209,,,,,,,,,:superficieTerreno: m²,40 m²,50 m²,57.764.474,05-06-2021,,,-33.4007,-70.5719
210,Código: 52070,Departamento,Departamento en Venta Usado Las Condes - Metropolitana Ver ubicación,AV CERRO COLORADO (AM)/AV MANQUEHUE NORTE (AM),$ 190.000.000,"UF 6.434,25",2,2,,62 m²,,8.566.577,27-03-2021,2020 1ºSem,70,-33.4007,-70.5736
211,Código: 102053244,Departamento,Departamento en Venta Usado Las Condes - Metropolitana Ver ubicación,Los Militares/Pio XI,UF 8.200,$ 242.141.736,3,2,,88 m²,"92,6 m²",102.062.795,14-06-2021,2020 1ºSem,88,-33.4071,-70.5765
212,Código: 102132298,Departamento,Departamento en Venta Usado Las Condes - Metropolitana Ver ubicación,"Flor de azucenas, impecable, amplio",UF 11.650,$ 344.018.442,3,3,,140 m²,150 m²,160.796.487,12-06-2021,2020 1ºSem,81,-33.4086,-70.574
213,Código: 1028018260-17,Departamento,Departamento en Venta Usado Las Condes - Metropolitana Ver ubicación,Cerro Colorado,UF 9.300,$ 274.624.164,3,2,,103 m²,123 m²,83.455.517,03-06-2021,,,-33.402,-70.5749
214,Código: 102375211,Departamento,Departamento en Venta Usado Vitacura - Metropolitana Ver ubicación,Los Abetos,UF 9.700,$ 286.435.956,3,2,,97 m²,6 m²,105.520.974,26-03-2021,2020 1ºSem,89,-33.4005,-70.5786
215,,,,,UF 12.930,$ 381.816.176,2,2,,89 m²,"113,4 m²",126.197.225,02-06-2020,2020 1ºSem,93,-33.4007,-70.5719
216,Código: 102029538,Departamento,Departamento en Venta Usado Las Condes - Metropolitana Ver ubicación,Manquehue Norte- Cerro El Plomo,UF 9.300,$ 274.624.164,3,2,,105 m²,118 m²,96.543.100,06-02-2019,2020 1ºSem,88,-33.4041,-70.5703
217,Código: 102052934,Departamento,Departamento en Venta Usado Las Condes - Metropolitana Ver ubicación,Los Militares / Pio XI,UF 10.300,$ 304.153.644,3,3,,122 m²,122 m²,4.467.368,24-05-2021,2020 1ºSem,88,-33.4074,-70.5754
218,Código: 102711930,Departamento,Departamento en Venta Usado Las Condes - Metropolitana Ver ubicación,Cerro Colorado Parque Araucano,UF 6.990,$ 206.411.065,,,,72 m²,75 m²,85.151.162,02-10-2020,2020 1ºSem,70,-33.4002,-70.5733
219,Código: 101076095,Casa,Casa en Venta Usado Vitacura - Metropolitana Ver ubicación,Padre Damián de Veuster,UF 14.900,$ 439.989.252,4,3,200 m²,120 m²,,99.200.792,20-10-2020,2020 1ºSem,99,-33.3799,-70.549
220,Código: 102078815,Departamento,Departamento en Venta Usado Vitacura - Metropolitana Ver ubicación,Av. Vitacura con Valle Central,UF 8.690,$ 256.611.181,4,3,,"115,9 m²","129,7 m²",146.360.205,18-06-2021,2020 1ºSem,67,-33.3799,-70.5403
221,Código: 102035520,Departamento,Departamento en Venta Usado Vitacura - Metropolitana Ver ubicación,SANTA TERESITA - PORTEZUELO,UF 29.500,$ 871.119.660,4,3,,426 m²,455 m²,489.902.225,24-10-2020,2020 1ºSem,85,-33.3702,-70.5437
222,Código: 102078452,Departamento,Departamento en Venta Usado Vitacura - Metropolitana Ver ubicación,"Maravilloso departamento con amplios y luminosos espacios. Espectacular vista, excelente conectividad y seguridad 24/7",UF 28.600,$ 844.543.128,4,5,,240 m²,280 m²,422.189.364,22-05-2021,2020 1ºSem,85,-33.3736,-70.5426
223,Código: 420985,Casa,Casa en Venta Usado Vitacura - Metropolitana Ver ubicación,De Mirador/La Cascada,UF 13.990,$ 413.117.425,4,3,200 m²,140 m²,,100.194.364,15-06-2021,2020 1ºSem,99,-33.378,-70.5472
224,Código: 102063959,Departamento,Departamento en Venta Usado Vitacura - Metropolitana Ver ubicación,VALLE CENTRAL,UF 11.000,$ 324.824.280,4,4,,128 m²,143 m²,143.264.980,11-05-2019,2020 1ºSem,92,-33.3792,-70.5413
225,Código: 102161972,Departamento,Departamento en Venta Usado Vitacura - Metropolitana Ver ubicación,Vía Aurora - Lo Curro,UF 34.000,$ 1.004.002.320,3,4,,"249,4 m²","309,7 m²",302.889.302,02-06-2021,2020 1ºSem,93,-33.3718,-70.5487
226,Código: 26800,Departamento,Departamento en Venta Usado Vitacura - Metropolitana Ver ubicación,La Llavería,UF 8.500,$ 251.000.580,3,2,,93 m²,110 m²,102.116.327,29-04-2021,2020 1ºSem,87,-33.3768,-70.5454
227,Código: 396978,Departamento,Departamento en Venta Usado Vitacura - Metropolitana Ver ubicación,La Llaveria/M de Balaguer,UF 9.850,$ 290.865.378,3,2,,105 m²,120 m²,118.610.399,15-03-2021,2020 1ºSem,87,-33.3754,-70.5484
228,Código: 101035899,Casa,Casa en Venta Usado Vitacura - Metropolitana Ver ubicación,La Llaveria / El Zodiaco,UF 14.622,$ 431.780.056,4,3,267 m²,173 m²,,98.415.660,10-06-2021,2020 1ºSem,99,-33.3796,-70.5462
229,Código: 42545,Departamento,Departamento en Venta Usado Vitacura - Metropolitana Ver ubicación,Balaguer/La Llaveria,$ 360.000.000,"UF 12.191,21",4,3,,111 m²,120 m²,121.452.999,03-10-2019,2020 1ºSem,87,-33.3757,-70.546
230,Código: 6924,Departamento,Departamento en Venta Usado Vitacura - Metropolitana Ver ubicación,ESCRIBÁ DE BALAGUER / LA LLAVERÍA,UF 9.980,$ 294.704.210,3,2,,110 m²,115 m²,120.380.940,15-06-2021,2020 1ºSem,87,-33.3756,-70.5475
231,Código: 102054412,Departamento,Departamento en Venta Usado Vitacura - Metropolitana Ver ubicación,LLAVERIA/ ESCRIVA DE BALAGUER,UF 29.900,$ 882.931.452,4,4,,238 m²,400 m²,327.788.967,22-03-2019,2020 1ºSem,87,-33.3769,-70.5493
232,Código: 28605,Departamento,Departamento en Venta Usado Las Condes - Metropolitana Ver ubicación,Tomas Moro,UF 9.741,$ 287.646.664,4,2,,140 m²,,92.611.503,19-06-2021,2020 1ºSem,48,-33.4079,-70.5451
233,,,,,,,,,,,,,,,,,
234,Código: 102015508,Departamento,Departamento en Venta Usado Las Condes - Metropolitana Ver ubicación,Metro Los Dominicos,UF 10.200,$ 301.200.696,3,2,,103 m²,111 m²,132.857.237,08-04-2021,2020 1ºSem,82,-33.4067,-70.5449
235,Código: 101043873,Casa,Casa en Venta Usado Las Condes - Metropolitana Ver ubicación,Estadio Israelita / Bocaccio,UF 17.320,$ 511.450.593,4,2,430 m²,135 m²,,151.528.543,18-10-2019,2020 1ºSem,76,-33.4017,-70.5484
236,Código: 102015559,Departamento,Departamento en Venta Usado Las Condes - Metropolitana Ver ubicación,Metro Los Dominicos - 3 estacionamientos,UF 18.000,$ 531.530.640,3,,,140 m²,252 m²,200.815.846,09-06-2021,2020 1ºSem,82,-33.4067,-70.5456
237,Código: 404851,Casa,Casa en Venta Usado Las Condes - Metropolitana Ver ubicación,Oxford /Camino El Alba,UF 19.500,$ 575.824.860,3,3,480 m²,140 m²,,162.049.929,29-03-2021,2020 1ºSem,76,-33.403,-70.543
238,,,,,,,,,,,,688.400.674,02-01-2020,,,-33.4118,-70.5188
239,Código: 1564811,Departamento,Departamento en Venta Usado Las Condes - Metropolitana Ver ubicación,El Remanso / San Carlos de Apoquindo.,UF 15.800,$ 466.565.784,3,2,,174 m²,,223.216.590,11-02-2020,2020 1ºSem,68,-33.4154,-70.5183
240,Código: 15510,Departamento,Departamento en Venta Usado Las Condes - Metropolitana Ver ubicación,Camino Gran Vista,UF 14.500,$ 428.177.460,4,3,,210 m²,210 m²,216.300.715,05-04-2021,2020 1ºSem,68,-33.4154,-70.5183
241,Código: 1576793,Departamento,Departamento en Venta Usado Las Condes - Metropolitana Ver ubicación,TOUR VIRTUAL / Excelente departamento / La Gioconda,UF 15.900,$ 469.518.732,4,3,,190 m²,220 m²,212.536.845,07-05-2021,2020 1ºSem,88,-33.4124,-70.5866
242,Código: 28601,Departamento,Departamento en Venta Usado Las Condes - Metropolitana Ver ubicación,La Gioconda,UF 12.900,$ 380.930.292,3,2,,108 m²,32 m²,146.888.194,14-06-2021,2020 1ºSem,88,-33.413,-70.5865
243,Código: 102035158,Departamento,Departamento en Venta Usado Las Condes - Metropolitana Ver ubicación,El Golf,UF 23.500,$ 693.942.780,2,4,,226 m²,277 m²,265.105.043,30-01-2019,2020 1ºSem,88,-33.4112,-70.5874
244,Código: 1028064014-49,Departamento,Departamento en Venta Usado Las Condes - Metropolitana Ver ubicación,Amplio departamento a pasos del Metro,UF 8.990,$ 265.470.025,4,2,,123 m²,138 m²,114.216.289,12-06-2021,2020 1ºSem,81,-33.412,-70.5802
245,Código: 102047858,Departamento,Departamento en Venta Usado Las Condes - Metropolitana Ver ubicación,Alcantara/ Presidente Errazuriz,UF 25.000,$ 738.237.000,3,4,,400 m²,430 m²,498.506.735,06-02-2019,2020 1ºSem,88,-33.4154,-70.5873
246,Código: 27684,Departamento,Departamento en Venta Usado Las Condes - Metropolitana Ver ubicación,El Dante,UF 12.900,$ 380.930.292,3,2,,100 m²,132 m²,149.030.995,19-05-2021,2020 1ºSem,88,-33.412,-70.5881
247,Código: 102005772,Departamento,Departamento en Venta Usado Las Condes - Metropolitana Ver ubicación,METRO ESCUELA MILITAR / APOQUINDO,UF 4.850,$ 143.217.978,1,1,,38 m²,43 m²,62.038.481,24-06-2021,2020 1ºSem,81,-33.4137,-70.5819
248,Código: 102375717,Departamento,Departamento en Venta Usado Las Condes - Metropolitana Ver ubicación,Metro Alcántara,UF 5.100,$ 150.600.348,1,1,,42 m²,43 m²,35.529.779,03-05-2021,2020 1ºSem,88,-33.4145,-70.5899
249,Código: 52942,Departamento,Departamento en Venta Usado Las Condes - Metropolitana Ver ubicación,Málaga/Metro Alcántara,UF 18.900,$ 558.107.172,4,4,,300 m²,,229.308.975,24-05-2021,2020 1ºSem,88,-33.4164,-70.5865
250,,,,,,,,,,,,,:fechaPublicacionDespliegue:,,,-33.4163,-70.5831
251,Código: 1577204,Departamento,Departamento en Venta Usado Las Condes - Metropolitana Ver ubicación,Málaga / Plaza Mustafa/Inversionistas,UF 5.100,$ 150.600.348,1,1,,37 m²,40 m²,44.982.276,07-05-2021,2020 1ºSem,88,-33.4156,-70.5872
252,Código: 102008730,Departamento,Departamento en Venta Usado Las Condes - Metropolitana Ver ubicación,El Golf,UF 16.400,$ 484.283.472,3,3,,146 m²,228 m²,128.079.201,28-05-2021,2020 1ºSem,88,-33.418,-70.5892
253,Código: 102161016,Departamento,Departamento en Venta Usado Las Condes - Metropolitana Ver ubicación,Málaga - Renato Sánchez,UF 28.600,$ 844.543.128,3,3,,236 m²,306 m²,282.398.896,02-10-2019,2020 1ºSem,88,-33.4163,-70.5876
254,Código: 1028056013-36,Departamento,Departamento en Venta Usado Las Condes - Metropolitana Ver ubicación,Asturias,UF 7.700,$ 227.376.996,3,3,,94 m²,94 m²,85.725.796,24-03-2021,2020 1ºSem,88,-33.4159,-70.585
255,Código: 101078743,Casa,Casa en Venta Usado Las Condes - Metropolitana Ver ubicación,Metro Escuela Militar,UF 19.500,$ 575.824.860,3,3,300 m²,176 m²,,190.960.705,12-06-2021,,,-33.4165,-70.585
256,,,Departamento en Venta Usado Las Condes - Metropolitana Ver ubicación,El Golf,UF 10.500,$ 310.059.540,3,2,,140 m²,170 m²,141.020.861,28-05-2021,2020 1ºSem,88,-33.4156,-70.5865
257,Código: 102005240,Departamento,Departamento en Venta Usado Las Condes - Metropolitana Ver ubicación,"CLÁSICO Y ESPACIOSO IDEAL PARA FAMILIA NUMEROSA, ACCESO DIFERENCIADO PARA SERVICIO",UF 21.900,$ 646.695.612,5,5,,235 m²,260 m²,265.105.043,12-06-2021,2020 1ºSem,88,-33.4121,-70.5876
258,Código: 102040623,Departamento,Departamento en Venta Usado Las Condes - Metropolitana Ver ubicación,Hamlet-Las Torcazas,UF 16.200,$ 478.377.576,3,3,,"201,1 m²","272,1 m²",267.338.954,06-02-2019,2020 1ºSem,88,-33.4122,-70.5879
259,,,,,,,,,,,,,,,,,
260,Código: 102135315,Departamento,Departamento en Venta Usado Las Condes - Metropolitana Ver ubicación,Escuela Militar,UF 5.800,$ 171.270.984,2,1,,55 m²,60 m²,47.076.115,19-05-2021,2020 1ºSem,88,-33.4168,-70.5847
261,Código: 102005771,Departamento,Departamento en Venta Usado Las Condes - Metropolitana Ver ubicación,* Con Estacionamiento y Bodega* A PASOS DE METRO ESCUELA MILITAR!!!,UF 4.650,$ 137.312.082,1,1,,36 m²,38 m²,42.295.793,24-06-2021,2020 1ºSem,81,-33.4118,-70.5804
262,Código: 16566,Departamento,Departamento en Venta Usado Las Condes - Metropolitana Ver ubicación,El Golf - Las Condes,UF 12.000,$ 354.353.760,3,3,,120 m²,140 m²,146.888.194,20-03-2019,2020 1ºSem,88,-33.4128,-70.5872
263,Código: 102008779,Departamento,Departamento en Venta Usado Las Condes - Metropolitana Ver ubicación,El Golf,UF 13.980,$ 412.822.130,3,3,,200 m²,230 m²,164.847.728,28-05-2021,2020 1ºSem,88,-33.4161,-70.5876
264,Código: 1578042,Departamento,Departamento en Venta Usado Las Condes - Metropolitana Ver ubicación,TOUR VIRTUAL / Cómdo Departamento / La Gioconda,UF 14.560,$ 429.949.228,3,3,,140 m²,153 m²,179.178.231,11-06-2021,2020 1ºSem,88,-33.4132,-70.5875
265,Código: 102135327,Departamento,Departamento en Venta Usado Las Condes - Metropolitana Ver ubicación,El Golf/ Málaga,UF 25.500,$ 753.001.740,3,5,,270 m²,330 m²,243.087.056,18-06-2021,2020 1ºSem,88,-33.4164,-70.5863
266,Código: 102076902,Departamento,Departamento en Venta Usado Las Condes - Metropolitana Ver ubicación,Subcentro Escuela Militar- Las Condes,UF 10.300,$ 304.153.644,3,3,,134 m²,168 m²,151.678.116,18-12-2020,2020 1ºSem,88,-33.416,-70.5843
267,,,,,:precioUF:,$ 555.154.224,3,3,,200 m²,220 m²,212.536.845,28-05-2021,,,-33.412,-70.5875
268,Código: 102038136,Departamento,Departamento en Venta Usado Las Condes - Metropolitana Ver ubicación,Málaga / El golf,UF 18.900,$ 558.107.172,3,2,,232 m²,252 m²,323.988.127,30-01-2019,2020 1ºSem,88,-33.4169,-70.5863
269,Código: 102375463,Departamento,Departamento en Venta Usado Las Condes - Metropolitana Ver ubicación,Escuela Militar,UF 5.000,$ 147.647.400,2,1,,59 m²,69 m²,39.822.014,14-04-2021,2020 1ºSem,88,-33.4125,-70.586
270,Código: 53043,Casa,Casa en Venta Usado Las Condes - Metropolitana Ver ubicación,EN GOLF/Colegio Verbo Divino,UF 45.000,$ 1.328.826.600,5,4,806 m²,220 m²,,547.592.402,01-06-2021,2020 1ºSem,102,-33.4186,-70.5863
271,Código: 102008120,Departamento,Departamento en Venta Usado Las Condes - Metropolitana Ver ubicación,Av Vespucio Norte / Escuela Militar,UF 5.100,$ 150.600.348,1,1,,45 m²,48 m²,33.169.319,16-06-2021,2020 1ºSem,88,-33.4135,-70.5856
272,,,Departamento en Venta Usado Las Condes - Metropolitana Ver ubicación,El Golf,UF 10.990,$ 324.528.985,3,2,,168 m²,198 m²,154.848.155,05-06-2021,2020 1ºSem,88,-33.4163,-70.5863
273,,,,,,,,,,,,,,,,,
274,,,,,UF 25.300,$ 747.095.844,3,3,,139 m²,239 m²,163.584.351,11-05-2021,2020 1ºSem,88,-33.4106,-70.5872
275,Código: 102078598,Departamento,Departamento en Venta Usado Las Condes - Metropolitana Ver ubicación,Málaga / Apoquindo,UF 5.450,$ 160.935.666,1,1,,39 m²,39 m²,49.645.725,02-06-2021,2020 1ºSem,88,-33.4156,-70.5872
276,Código: 10683,Departamento,Departamento en Venta Usado Las Condes - Metropolitana Ver ubicación,Las Torcazas,UF 25.800,$ 761.860.584,4,4,,216 m²,270 m²,395.315.144,05-11-2020,2020 1ºSem,88,-33.4121,-70.5891
277,,,,,,$ 546.295.380,3,3,,236 m²,263 m²,328.282.837,30-04-2021,,,-33.4133,-70.5887
278,Código: 102008054,Departamento,Departamento en Venta Usado Las Condes - Metropolitana Ver ubicación,El Golf,UF 16.700,$ 493.142.316,3,3,,232 m²,252 m²,323.988.127,28-05-2021,2020 1ºSem,88,-33.4166,-70.5894
279,Código: 102053245,Departamento,Departamento en Venta Usado Las Condes - Metropolitana Ver ubicación,Asturias/Renato Sanchez,UF 6.480,$ 191.351.030,2,2,,61 m²,68 m²,54.182.383,14-06-2021,2020 1ºSem,88,-33.4154,-70.5856
280,Código: 101070830,Casa,Casa en Venta Usado Las Condes - Metropolitana Ver ubicación,MALAGA / APOQUINDO,UF 65.000,$ 1.919.416.200,5,5,1.240 m²,480 m²,,752.008.891,10-12-2019,2020 1ºSem,102,-33.4184,-70.5859
281,,,,,,,,,,,,,,,,,
282,Código: 101036601,Casa,Casa en Venta Usado Las Condes - Metropolitana Ver ubicación,Malaga,UF 75.000,$ 2.214.711.000,3,3,1.283 m²,366 m²,,1.173.317.545,27-01-2020,2020 1ºSem,102,-33.4197,-70.5876
283,Código: 1028057036-69,Departamento,Departamento en Venta Usado Las Condes - Metropolitana Ver ubicación,Oscar Tenhann,UF 17.900,$ 528.577.692,5,5,,213 m²,238 m²,246.665.890,22-06-2021,2020 1ºSem,93,-33.397,-70.5653
284,Código: 102376129,Departamento,Departamento en Venta Usado Las Condes - Metropolitana Ver ubicación,"Parque Juan Pablo II, Nuestra Sra del rosario",UF 13.200,$ 389.789.136,3,3,,155 m²,165 m²,188.344.618,02-06-2021,2020 1ºSem,93,-33.3977,-70.5657
285,Código: FPV3198,Departamento,Departamento en Venta Usado Vitacura - Metropolitana Ver ubicación,Nuestra Señora del Rosario - las condes,UF 13.200,$ 389.789.136,3,4,,220 m²,,163.480.131,17-04-2019,2020 1ºSem,96,-33.3955,-70.5682
286,Código: 101008171,Casa,Casa en Venta Usado Vitacura - Metropolitana Ver ubicación,Gerónimo Alderete / Las Hualtatas,UF 10.600,$ 313.012.488,5,2,240 m²,128 m²,,102.621.511,01-07-2021,2020 1ºSem,108,-33.3907,-70.5627
287,Código: 31462,Departamento,Departamento en Venta Usado Las Condes - Metropolitana Ver ubicación,Benito Juarez/Hnos Cabot.,UF 17.890,$ 528.282.397,3,4,,280 m²,,361.411.005,25-05-2021,2020 1ºSem,93,-33.3965,-70.5641
288,Código: 28308,Departamento,Departamento en Venta Usado Las Condes - Metropolitana Ver ubicación,Cerro colorado,UF 14.000,$ 413.412.720,3,3,,139 m²,154 m²,159.550.242,05-06-2021,2020 1ºSem,93,-33.3996,-70.5691
289,Código: 101007863,Casa,Casa en Venta Usado Vitacura - Metropolitana Ver ubicación,GERONIMO DE ALDERETE-LAS HUALTATAS,UF 12.000,$ 354.353.760,3,2,278 m²,70 m²,,107.211.782,30-03-2021,2020 1ºSem,108,-33.3916,-70.562
290,Código: D3865,Casa,Casa en Venta Usado Las Condes - Metropolitana Ver ubicación,PRESIDENTE RIESCO / GERÓNIMO DE ALDERETE,UF 42.360,$ 1.250.868.772,4,2,706 m²,185 m²,,,11-03-2019,,,-33.397,-70.5604
291,Código: 52104,Departamento,Departamento en Venta Usado Las Condes - Metropolitana Ver ubicación,Av. Kennedy Lateral (LF)/Geronimo de Alderete (LF),UF 12.400,$ 366.165.552,4,3,,150 m²,,209.754.114,30-03-2021,2020 1ºSem,93,-33.3949,-70.5608
292,,,,,,,,,,,,,04-06-2021,,,-33.3951,-70.5617
293,Código: 102006761,Departamento,Departamento en Venta Usado Las Condes - Metropolitana Ver ubicación,"KENNEDY CON OSCAR TENHANN,",UF 19.700,$ 581.730.756,4,3,,260 m²,278 m²,246.665.890,06-02-2019,2020 1ºSem,93,-33.3972,-70.5653
294,Código: 28280,Casa,Casa en Venta Usado Vitacura - Metropolitana Ver ubicación,arkansas,UF 27.000,$ 797.295.960,4,3,518 m²,299 m²,,296.769.863,15-06-2021,2020 1ºSem,108,-33.393,-70.5616
295,Código: 1028018296-4,Departamento,Departamento en Venta Usado Las Condes - Metropolitana Ver ubicación,Brasilia,UF 10.990,$ 324.528.985,3,3,,126 m²,140 m²,79.489.971,01-06-2021,2020 1ºSem,93,-33.3978,-70.5669
296,Código: 20858,Departamento,Departamento en Venta Usado Las Condes - Metropolitana Ver ubicación,Presidente Riesco/Parque Araucano,UF 21.900,$ 646.695.612,4,4,,270 m²,,383.708.933,16-04-2021,2020 1ºSem,93,-33.3979,-70.5641
297,Código: 102064484,Departamento,Departamento en Venta Usado Las Condes - Metropolitana Ver ubicación,BRASILIA -KENNEDY,UF 13.800,$ 407.506.824,5,4,,170 m²,170 m²,118.185.967,25-06-2019,2020 1ºSem,93,-33.3967,-70.5673
298,Código: 1028068048-1,Departamento,Departamento en Venta Usado Ñuñoa - Metropolitana Ver ubicación,Crescente Errázuriz,UF 4.890,$ 144.399.157,2,2,,58 m²,70 m²,58.998.806,09-06-2021,2020 1ºSem,70,-33.4574,-70.6253
299,Código: 1028072028-1,Departamento,Departamento en Venta Usado Ñuñoa - Metropolitana Ver ubicación,Av. Salvador,UF 6.100,$ 180.129.828,3,3,,85 m²,90 m²,55.308.478,07-05-2021,2020 1ºSem,56,-33.4596,-70.6208
300,Código: 1028057049-21,Departamento,Departamento en Venta Usado Ñuñoa - Metropolitana Ver ubicación,Irarrazával,UF 4.600,$ 135.835.608,2,2,,60 m²,66 m²,58.582.956,15-06-2021,2020 1ºSem,68,-33.4534,-70.6225
301,Código: 1028024051-117,Departamento,Departamento en Venta Usado Ñuñoa - Metropolitana Ver ubicación,Suarez Mujica,UF 5.600,$ 165.365.088,3,2,,73 m²,91 m²,64.058.416,15-04-2020,2020 1ºSem,70,-33.459,-70.6248
302,Código: 102078250,Departamento,Departamento en Venta Usado Ñuñoa - Metropolitana Ver ubicación,"Metro Irarrázaval, Ñuñoa",UF 3.120,$ 92.131.977,1,1,,"35,4 m²","38,1 m²",42.876.381,30-04-2021,2020 1ºSem,59,-33.4531,-70.6274
303,Código: 102077221,Departamento,Departamento en Venta Usado Ñuñoa - Metropolitana Ver ubicación,Metro Irarrazaval-Barrio Italia,UF 3.100,$ 91.541.388,1,1,,24 m²,29 m²,28.242.140,19-01-2021,2020 1ºSem,59,-33.4523,-70.6245
304,Código: 102027154,Departamento,Departamento en Venta Usado Ñuñoa - Metropolitana Ver ubicación,IRARRAZAVAL/SALVADOR 3 HABITAC 2 BAÑOS CON ESTACIONAMIENTO 80 M2,UF 5.400,$ 159.459.192,3,2,,75 m²,80 m²,73.477.554,22-05-2021,2020 1ºSem,68,-33.4534,-70.622
305,Código: 28140,Departamento,Departamento en Venta Usado Ñuñoa - Metropolitana Ver ubicación,Irarrazabal,UF 4.950,$ 146.170.926,2,2,,62 m²,67 m²,58.582.956,02-06-2021,2020 1ºSem,68,-33.4534,-70.622
306,Código: 28892,Departamento,Departamento en Venta Usado Ñuñoa - Metropolitana Ver ubicación,Irarrázaval,UF 3.500,$ 103.353.180,1,1,,40 m²,42 m²,50.193.624,23-06-2021,2020 1ºSem,59,-33.4523,-70.6287
307,Código: 53264,Departamento,Departamento en Venta Usado Ñuñoa - Metropolitana Ver ubicación,Av. Manuel Antonio Matta (ag)/Vicuña Mackenna,UF 4.200,$ 124.023.816,2,1,,49 m²,,45.479.500,17-06-2021,2020 1ºSem,59,-33.4549,-70.6295
308,Código: 1028024082-133,Departamento,Departamento en Venta Usado Ñuñoa - Metropolitana Ver ubicación,Lo encalada,UF 3.980,$ 117.527.330,3,1,,65 m²,65 m²,43.693.522,27-11-2019,2020 1ºSem,68,-33.4535,-70.6252
309,Código: 102077478,Departamento,Departamento en Venta Usado Ñuñoa - Metropolitana Ver ubicación,Metro Irarrazaval - 3 dormitorios MJN,UF 6.400,$ 188.988.672,3,2,,85 m²,92 m²,89.505.565,18-06-2021,2020 1ºSem,59,-33.4526,-70.626
310,Código: 102078605,Departamento,Departamento en Venta Usado Ñuñoa - Metropolitana Ver ubicación,Irarrazaval con Salvador,$ 135.000.000,"UF 4.571,7",2,2,,56 m²,59 m²,72.806.043,02-06-2021,2020 1ºSem,68,-33.4534,-70.622
311,Código: 53262,Departamento,Departamento en Venta Usado Ñuñoa - Metropolitana Ver ubicación,Mujica (ag)/Gral. Bustamante,UF 3.590,$ 106.010.833,1,1,,40 m²,,37.003.875,16-06-2021,2020 1ºSem,59,-33.4506,-70.6297
312,Código: 52987,Departamento,Departamento en Venta Usado Ñuñoa - Metropolitana Ver ubicación,Condell/Irarrázaval,$ 210.000.000,"UF 7.111,54",3,2,,92 m²,,71.378.460,27-05-2021,2020 1ºSem,59,-33.4518,-70.6248
313,Código: 52259,Departamento,Departamento en Venta Usado Ñuñoa - Metropolitana Ver ubicación,Irarrazaval/Metro Monseñor Eyzaguirre,UF 5.600,$ 165.365.088,2,2,,72 m²,,63.605.704,08-04-2021,2020 1ºSem,68,-33.4516,-70.62
314,Código: P4301,Casa,Casa en Venta Usado Ñuñoa - Metropolitana Ver ubicación,AV. SALVADOR / SUÁREZ MUJICA,$ 430.000.000,"UF 14.561,72",4,2,335 m²,200 m²,,,11-03-2019,,,-33.4591,-70.621
315,Código: 27496,Departamento,Departamento en Venta Usado Ñuñoa - Metropolitana Ver ubicación,Seminario,UF 4.100,$ 121.070.868,1,1,,47 m²,54 m²,54.404.597,14-05-2021,2020 1ºSem,59,-33.453,-70.627
316,Código: 1028037084-50,Departamento,Departamento en Venta Usado Ñuñoa - Metropolitana Ver ubicación,General Bustamante,UF 4.312,$ 127.331.117,3,2,,68 m²,75 m²,36.579.653,25-06-2021,2020 1ºSem,59,-33.4546,-70.6292
317,Código: 1577171,Departamento,Departamento en Venta Usado Ñuñoa - Metropolitana Ver ubicación,Departamento de arquitectura moderna con Tour Virtual,UF 3.500,$ 103.353.180,1,1,,40 m²,40 m²,44.402.982,07-05-2021,2020 1ºSem,59,-33.4512,-70.6299
318,Código: 102045290,Departamento,Departamento en Venta Usado Ñuñoa - Metropolitana Ver ubicación,Seminario / Irarrázaval,UF 5.360,$ 158.278.012,2,2,,56 m²,60 m²,59.927.313,02-02-2021,2020 1ºSem,59,-33.4529,-70.6272
319,Código: 28588,Departamento,Departamento en Venta Usado Las Condes - Metropolitana Ver ubicación,Capitán Crosbie,UF 11.800,$ 348.447.864,3,3,,132 m²,149 m²,185.573.691,15-06-2021,2020 1ºSem,93,-33.3948,-70.558
320,Código: 102161716,Departamento,Departamento en Venta Usado Las Condes - Metropolitana Ver ubicación,Kennedy/Las Tranqueras,UF 20.000,$ 590.589.600,3,3,,270 m²,340 m²,344.512.372,19-01-2021,2020 1ºSem,93,-33.3935,-70.5561
321,Código: 25993,Departamento,Departamento en Venta Usado Las Condes - Metropolitana Ver ubicación,Las Verbenas,UF 5.450,$ 160.935.666,1,1,,31 m²,40 m²,42.045.147,16-04-2021,2020 1ºSem,109,-33.3959,-70.5503
322,Código: :codigo:,,:direccion: Ver ubicación,:titulo:,:precioUF:,:precioDespliegue:,:dormitoriosText:,:,:superficieTerreno: m²,:metrosUtiles: m²,:metrosConstruidos: m²,:avaluoFiscalTotalPesos:,:fechaPublicacionDespliegue:,2020 1ºSem,109,-33.3998,-70.555
323,Código: 102053287,Departamento,Departamento en Venta Usado Las Condes - Metropolitana Ver ubicación,GERONIMO DE ALDERETE / AV. KENNEDY,UF 12.200,$ 360.259.656,3,4,,137 m²,152 m²,169.929.855,12-06-2021,2020 1ºSem,93,-33.3945,-70.5599
324,Código: 101132290,Casa,Casa en Venta Usado Las Condes - Metropolitana Ver ubicación,Garcia Pica/Los Milirares,UF 16.500,$ 487.236.420,4,2,484 m²,155 m²,,191.938.570,07-06-2021,2020 1ºSem,83,-33.3996,-70.559
325,Código: 102010948,Departamento,Departamento en Venta Usado Las Condes - Metropolitana Ver ubicación,Av. Presidente Kennedy - Capitán Crosbie,UF 8.100,$ 239.188.788,3,3,,105 m²,110 m²,123.355.655,02-06-2021,2020 1ºSem,93,-33.3939,-70.5581
326,Código: 102038767,Departamento,Departamento en Venta Usado Las Condes - Metropolitana Ver ubicación,HERMANOS CABOT CON BENITO JUAREZ,UF 20.700,$ 611.260.236,5,4,,205 m²,258 m²,326.072.592,06-02-2019,2020 1ºSem,93,-33.3938,-70.5564
327,Código: 102375360,Departamento,Departamento en Venta Usado Las Condes - Metropolitana Ver ubicación,Mall Alto Las Condes,UF 5.400,$ 159.459.192,1,1,,31 m²,40 m²,7.525.506,08-04-2021,2020 1ºSem,109,-33.3959,-70.5503
328,Código: 102078909,Departamento,Departamento en Venta Usado Las Condes - Metropolitana Ver ubicación,kennedy,UF 9.900,$ 292.341.852,2,2,,100 m²,110 m²,140.457.223,29-06-2021,2020 1ºSem,93,-33.3951,-70.5584
329,Código: 101376270,Casa,Casa en Venta Usado Las Condes - Metropolitana Ver ubicación,Av. Las Condes,UF 24.500,$ 723.472.260,5,4,430 m²,212 m²,,244.340.275,10-06-2021,2020 1ºSem,83,-33.3964,-70.5521
330,Código: 2586312,Departamento,Departamento en Venta Usado Las Condes - Metropolitana Ver ubicación,SECTOR PADRE HURTADO,UF 7.850,$ 231.806.418,2,2,,,76 m²,96.011.975,24-03-2021,2020 1ºSem,109,-33.3949,-70.5513
331,Código: Add1081053,Departamento,Departamento en Venta Usado Las Condes - Metropolitana Ver ubicación,"Las Verbenas, a pasos de Alto Las Condes",UF 7.250,$ 214.088.730,2,2,70 m²,60 m²,60 m²,65.317.989,07-06-2021,2020 1ºSem,109,-33.3988873,-70.5534504
332,Código: 24530,Departamento,Departamento en Venta Usado Las Condes - Metropolitana Ver ubicación,Av. Kennedy,UF 7.200,$ 212.612.256,2,2,,80 m²,90 m²,58.879.202,11-03-2021,2020 1ºSem,109,-33.3914,-70.551
333,Código: 102077404,Departamento,Departamento en Venta Usado Las Condes - Metropolitana Ver ubicación,ALTO LAS CONDES / LAS TRANQUERAS / HERMANOS CABOT/ LAS CONDES,UF 9.200,$ 271.671.216,3,3,,102 m²,111 m²,126.684.047,04-02-2021,2020 1ºSem,93,-33.3951,-70.5542
334,Código: 102375655,Departamento,Departamento en Venta Usado Las Condes - Metropolitana Ver ubicación,Presidente Riesco,UF 14.500,$ 428.177.460,3,3,,143 m²,50 m²,197.589.879,28-04-2021,2020 1ºSem,93,-33.396,-70.5573
335,Código: 420990,Casa,Casa en Venta Usado Las Condes - Metropolitana Ver ubicación,P Riesco/ Las Tranqueras,UF 12.700,$ 375.024.396,3,2,280 m²,155 m²,,96.753.326,17-06-2021,2020 1ºSem,83,-33.395,-70.5537
336,Código: 1028018264-17,Departamento,Departamento en Venta Usado San Miguel - Metropolitana Ver ubicación,Av Lazo,UF 3.255,$ 96.118.457,2,2,,57 m²,60 m²,52.606.197,02-05-2021,2020 1ºSem,49,-33.4978,-70.6622
337,,,,,,,,,,52 m²,52 m²,34.304.677,19-03-2021,,,-33.4971,-70.6609
338,Código: 52032,Departamento,Departamento en Venta Usado San Miguel - Metropolitana Ver ubicación,Gran Avenida/San Nicolas,$ 127.000.000,"UF 4.300,79",3,2,,81 m²,,59.171.958,27-03-2021,2020 1ºSem,45,-33.4955,-70.6642
339,Código: 18569,Casa,Casa en Venta Usado Lo Barnechea - Metropolitana Ver ubicación,Paseo Los Bravos,UF 26.900,$ 794.343.012,6,5,800 m²,370 m²,,396.310.613,05-11-2020,2020 1ºSem,84,-33.3223,-70.5669
340,Código: 28718,Casa,Casa en Venta Usado Lo Barnechea - Metropolitana Ver ubicación,Paseo Los Bravos,UF 24.900,$ 735.284.052,5,5,867 m²,271 m²,,396.310.613,17-06-2021,2020 1ºSem,84,-33.3221,-70.5676
341,Código: 1541258,Casa,Casa en Venta Usado Lo Barnechea - Metropolitana Ver ubicación,Casa en estupendo condominio,UF 26.800,$ 791.390.064,5,3,"1.400,7 m²",300 m²,,374.263.643,12-06-2021,2020 1ºSem,84,-33.32202553,-70.56026651
342,Código: 101134464,Casa,Casa en Venta Usado Las Condes - Metropolitana Ver ubicación,En Condominio Camino Mirasol / 2.640 m2 terreno,UF 58.000,$ 1.712.709.840,5,8,2.640 m²,465 m²,,687.966.691,10-06-2021,2020 1ºSem,80,-33.3978,-70.5266
343,Código: 1550244,Casa,Casa en Venta Usado Las Condes - Metropolitana Ver ubicación,Casa Maravillosa Los Domínicos Antiguo,UF 65.000,$ 1.919.416.200,5,3,3.100 m²,650 m²,,555.223.423,09-01-2019,2020 1ºSem,80,-33.3976,-70.5256
344,Código: 101160887,Casa,Casa en Venta Usado Las Condes - Metropolitana Ver ubicación,Camino El Algarrobo / Camino las Flores,UF 33.000,$ 974.472.840,5,3,983 m²,400 m²,,313.574.561,27-05-2019,2020 1ºSem,80,-33.3928,-70.5294
345,Código: 101038466,Casa,Casa en Venta Usado Las Condes - Metropolitana Ver ubicación,Camino La Fuente / Piedra Roja,UF 41.000,$ 1.210.708.680,6,9,1.850 m²,540 m²,540 m²,867.434.790,30-01-2019,2020 1ºSem,80,-33.396,-70.5251
346,Código: 20681,Casa,Casa en Venta Usado Las Condes - Metropolitana Ver ubicación,Condominio - La Fuente,UF 32.000,$ 944.943.360,4,4,540 m²,300 m²,,305.616.379,18-06-2021,2020 1ºSem,80,-33.391,-70.521
347,Código: 101005061,Casa,Casa en Venta Usado Las Condes - Metropolitana Ver ubicación,Camino Las Flores / Piedra Roja,UF 31.000,$ 915.413.880,5,4,1.000 m²,300 m²,,323.392.843,12-05-2021,2020 1ºSem,80,-33.3935,-70.5235
348,Código: :codigo:,,:direccion: Ver ubicación,:titulo:,:precioUF:,:precioDespliegue:,:dormitoriosText:,:,:superficieTerreno: m²,:metrosUtiles: m²,:metrosConstruidos: m²,:avaluoFiscalTotalPesos:,:fechaPublicacionDespliegue:,2020 1ºSem,80,-33.3978,-70.525
349,Código: 28111,Casa,Casa en Venta Usado Las Condes - Metropolitana Ver ubicación,Camino Las Flores,UF 31.000,$ 915.413.880,4,4,1.000 m²,400 m²,,323.392.843,30-05-2021,2020 1ºSem,80,-33.3948,-70.5245
350,Código: 101037953,Casa,Casa en Venta Usado Las Condes - Metropolitana Ver ubicación,Mirasol,UF 28.000,$ 826.825.440,4,3,560 m²,256 m²,256 m²,266.315.098,10-06-2020,2020 1ºSem,80,-33.3973,-70.5287
351,Código: 1548997,Casa,Casa en Venta Usado Las Condes - Metropolitana Ver ubicación,"Casa Los Dominicos Antiguo, Arq. Sartori",UF 55.000,$ 1.624.121.400,4,4,2.421 m²,488 m²,488 m²,862.535.942,12-12-2018,2020 1ºSem,80,-33.3922,-70.5212
352,Código: Add559332,Casa,Casa en Venta Usado Las Condes - Metropolitana Ver ubicación,Sector San Carlos de Apoquindo,UF 14.300,$ 422.271.564,5,4,270 m²,,193 m²,167.411.357,15-11-2018,2020 1ºSem,80,-33.3948249,-70.5222866
353,Código: 101711530,Casa,Casa en Venta Usado Las Condes - Metropolitana Ver ubicación,Camino La Fuente con Camino Las Flores,UF 32.500,$ 959.708.100,5,4,750 m²,265 m²,,301.276.197,08-06-2021,2020 1ºSem,80,-33.3951,-70.5223
354,Código: 101058782,Casa,Casa en Venta Usado Las Condes - Metropolitana Ver ubicación,LAS LAVÁNDULAS CON CAMINO LA FUENTE,UF 55.000,$ 1.624.121.400,4,3,2.421 m²,488 m²,488 m²,862.535.942,07-02-2019,2020 1ºSem,80,-33.3909,-70.5208
355,Código: 649,Casa,Casa en Venta Usado Las Condes - Metropolitana Ver ubicación,CAMINO MIRASOL/CAMINO LAS FLORES,UF 26.900,$ 794.343.012,4,3,700 m²,285 m²,285 m²,,12-12-2018,2020 1ºSem,80,-33.3973,-70.5287
356,Código: 101076457,Casa,Casa en Venta Usado Las Condes - Metropolitana Ver ubicación,Las Flores,UF 24.000,$ 708.707.520,5,4,1.480 m²,316 m²,,358.090.507,10-11-2020,2020 1ºSem,80,-33.399,-70.5226
357,Código: 1574028,Casa,Casa en Venta Usado Las Condes - Metropolitana Ver ubicación,Maravillosa Casa Mediterránea,UF 84.400,$ 2.492.288.112,3,4,4.171 m²,490 m²,,942.318.478,25-04-2021,2020 1ºSem,80,-33.3944,-70.5272
358,Código: 1577193,Casa,Casa en Venta Usado Las Condes - Metropolitana Ver ubicación,Estupenda casa norte en condominio,UF 31.000,$ 915.413.880,5,4,1.000 m²,360 m²,,323.392.843,11-05-2021,2020 1ºSem,80,-33.3926,-70.5229
359,Código: 49039,Casa,Casa en Venta Usado San Bernardo - Metropolitana Ver ubicación,Santiago Benitez/Alfredo Salgado,$ 92.000.000,"UF 3.115,53",3,1,220 m²,65 m²,,27.505.933,19-02-2021,,,-33.5896,-70.699
360,Código: 6934,Departamento,Departamento en Venta Usado San Bernardo - Metropolitana Ver ubicación,san jose,UF 2.900,$ 85.635.492,3,2,,73 m²,73 m²,31.333.702,05-11-2020,,,-33.5854,-70.6987
361,Código: FPM3011,Casa,Casa en Venta Usado Maipú - Metropolitana Ver ubicación,Libertador de Chile - Asunción,$ 120.000.000,"UF 4.063,74",4,3,148 m²,107 m²,,47.820.795,06-05-2020,2020 1ºSem,31,-33.5012,-70.7856
362,Código: :codigo:,,:direccion: Ver ubicación,:titulo:,:precioUF:,:precioDespliegue:,:dormitoriosText:,:,:superficieTerreno: m²,:metrosUtiles: m²,:metrosConstruidos: m²,:avaluoFiscalTotalPesos:,:fechaPublicacionDespliegue:,2020 1ºSem,31,-33.5044,-70.782
363,Código: 101376071,Casa,Casa en Venta Usado Maipú - Metropolitana Ver ubicación,avenida maipu - ohiggins,$ 125.000.000,"UF 4.233,06",3,1,88 m²,82 m²,,17.697.107,29-05-2021,2020 1ºSem,31,-33.5042,-70.7842
364,Código: 101053257,Casa,Casa en Venta Usado Macul - Metropolitana Ver ubicación,LAS DALIAS,UF 14.000,$ 413.412.720,5,2,620 m²,200 m²,200 m²,83.263.711,10-06-2020,2020 1ºSem,41,-33.4812,-70.5955
365,Código: 1028078009-28,Casa,Casa en Venta Usado Macul - Metropolitana Ver ubicación,Huachipato,UF 4.485,$ 132.439.717,4,2,120 m²,95 m²,,43.469.090,01-06-2021,2020 1ºSem,49,-33.487,-70.5951
366,Código: 101039194,Casa,Casa en Venta Usado Macul - Metropolitana Ver ubicación,García Huidobro / Poeta Juan Guzmán Cruchaga,$ 260.000.000,"UF 8.804,76",4,3,390 m²,185 m²,,44.032.313,14-05-2019,2020 1ºSem,49,-33.4899,-70.5951
367,Código: 101053247,Casa,Casa en Venta Usado Macul - Metropolitana Ver ubicación,Av. Macul/ Avda. Quilin,UF 10.600,$ 313.012.488,4,4,421 m²,220 m²,220 m²,87.345.140,06-02-2019,2020 1ºSem,49,-33.4876,-70.597
368,Código: 102371986,Departamento,Departamento en Venta Usado Macul - Metropolitana Ver ubicación,MACUL - QUILÍN,UF 4.990,$ 147.352.105,3,2,,80 m²,88 m²,59.077.303,10-10-2020,2020 1ºSem,48,-33.4858,-70.5992
369,Código: 1028072006-39,Casa,Casa en Venta Usado Macul - Metropolitana Ver ubicación,Armando Moock,UF 6.500,$ 191.941.620,4,3,279 m²,279 m²,,34.795.602,16-01-2021,2020 1ºSem,49,-33.4891,-70.5979
370,Código: 102015487,Departamento,Departamento en Venta Usado Macul - Metropolitana Ver ubicación,Quilín / Macul,$ 180.000.000,"UF 6.095,6",3,2,,64 m²,64 m²,48.375.166,16-03-2021,2020 1ºSem,48,-33.4883,-70.5985
371,Código: 102039128,Departamento,Departamento en Venta Usado Lo Barnechea - Metropolitana Ver ubicación,Camino Huinganal / Monseñor Adolfo Rodriguez / Colegio Huinganal,UF 19.500,$ 575.824.860,4,4,,225 m²,247 m²,305.654.084,26-04-2019,2020 1ºSem,77,-33.3364,-70.5088
372,Código: 6919,Departamento,Departamento en Venta Usado Lo Barnechea - Metropolitana Ver ubicación,HUINGANAL / MONSEÑOR ADOLFO RODRÍGUEZ,UF 12.900,$ 380.930.292,4,3,,140 m²,160 m²,177.936.248,15-06-2021,2020 1ºSem,77,-33.3363,-70.5088
373,Código: 1272,Casa,Casa en Venta Usado Lo Barnechea - Metropolitana Ver ubicación,EL CHIN,UF 16.900,$ 499.048.212,4,3,650 m²,200 m²,,,04-11-2019,2020 1ºSem,84,-33.3336,-70.503
374,,,,,,,,,,,,,,,,,
375,Código: 101048025,Casa,Casa en Venta Usado Lo Barnechea - Metropolitana Ver ubicación,"Huinganal, Colegio Mayflower y Huinganal.",UF 32.000,$ 944.943.360,4,3,1.716 m²,400 m²,400 m²,580.657.506,06-02-2019,2020 1ºSem,74,-33.3383,-70.506
376,Código: :codigo:,,:direccion: Ver ubicación,:titulo:,:precioUF:,:precioDespliegue:,:dormitoriosText:,,,228 m²,266 m²,307.011.796,08-06-2021,,,-33.3364,-70.5088
377,Código: 102042052,Departamento,Departamento en Venta Usado Lo Barnechea - Metropolitana Ver ubicación,Camino El Huinganal Estupendo departamento en Condominio,UF 19.500,$ 575.824.860,4,3,,200 m²,238 m²,4.849.054,06-02-2019,2020 1ºSem,77,-33.3361,-70.5083
378,Código: 101020841,Casa,Casa en Venta Usado Lo Barnechea - Metropolitana Ver ubicación,HUINGANAL,UF 16.900,$ 499.048.212,3,3,390 m²,140 m²,,205.750.676,07-06-2021,2020 1ºSem,84,-33.3325,-70.5033
379,Código: 1028063037-10,Departamento,Departamento en Venta Usado Lo Barnechea - Metropolitana Ver ubicación,Camino del Yunque,UF 22.000,$ 649.648.560,,5,,312 m²,570 m²,414.418.188,03-06-2021,2020 1ºSem,77,-33.3399,-70.5012
380,Código: 102231722,Departamento,Departamento en Venta Usado Lo Barnechea - Metropolitana Ver ubicación,Barrio Alpino,UF 19.500,$ 575.824.860,3,3,,228 m²,264 m²,305.654.084,25-09-2020,2020 1ºSem,77,-33.3358,-70.5079
381,Código: 6960,Departamento,Departamento en Venta Usado Lo Barnechea - Metropolitana Ver ubicación,CAMINO EL HUINGANAL,UF 12.500,$ 369.118.500,4,3,,140 m²,152 m²,158.519.647,16-06-2021,2020 1ºSem,77,-33.3354,-70.508
382,Código: 412842,Departamento,Departamento en Venta Usado Lo Barnechea - Metropolitana Ver ubicación,Pie Andino/Camino El Huinganal,UF 22.600,$ 667.366.248,3,4,5.000 m²,261 m²,282 m²,461.312.514,26-04-2021,2020 1ºSem,77,-33.3353,-70.508
383,Código: 52550,Departamento,Departamento en Venta Usado Santiago - Metropolitana Ver ubicación,AV CATEDRAL (AM)/AV TEATINOS (AM),$ 80.000.000,"UF 2.709,16",2,1,,38 m²,,40.844.448,26-04-2021,2020 1ºSem,48,-33.4368,-70.6554
384,Código: 26974,Departamento,Departamento en Venta Usado Santiago - Metropolitana Ver ubicación,A. Manuel Rodriguez,$ 98.000.000,"UF 3.318,72",2,2,,54 m²,54 m²,43.089.432,03-05-2021,2020 1ºSem,46,-33.4381,-70.6599
385,,,,:titulo:,:precioUF:,:precioDespliegue:,:dormitoriosText:,:,:superficieTerreno: m²,:metrosUtiles: m²,:metrosConstruidos: m²,:avaluoFiscalTotalPesos:,:fechaPublicacionDespliegue:,2020 1ºSem,48,-33.4368,-70.6544
386,Código: :codigo:,,:direccion: Ver ubicación,:titulo:,:precioUF:,:precioDespliegue:,:dormitoriosText:,:,:superficieTerreno: m²,:metrosUtiles: m²,:metrosConstruidos: m²,:avaluoFiscalTotalPesos:,:fechaPublicacionDespliegue:,2020 1ºSem,52,-33.4369,-70.6579
387,Código: 52952,Departamento,Departamento en Venta Usado Santiago - Metropolitana Ver ubicación,Amunategui(AG)/San Pablo,UF 3.200,$ 94.494.336,2,1,,53 m²,,51.319.662,27-05-2021,2020 1ºSem,52,-33.4352,-70.6571
388,Código: 1028064028-6,Departamento,Departamento en Venta Usado Santiago - Metropolitana Ver ubicación,Santo Domingo,UF 2.150,$ 63.488.382,1,1,,35 m²,35 m²,45.327.417,29-05-2021,2020 1ºSem,52,-33.4365,-70.6548
389,Código: 102006210,Departamento,Departamento en Venta Usado Santiago - Metropolitana Ver ubicación,Full Amoblado Santo Domingo/ Metro Santa Ana/1D-1B 50 M2/w1,UF 2.850,$ 84.159.018,1,1,,40 m²,50 m²,596.613,04-06-2021,2020 1ºSem,52,-33.4378,-70.6579
390,,,:direccion: Ver ubicación,:titulo:,:precioUF:,:precioDespliegue:,:dormitoriosText:,:,:superficieTerreno: m²,:metrosUtiles: m²,:metrosConstruidos: m²,:avaluoFiscalTotalPesos:,:fechaPublicacionDespliegue:,2020 1ºSem,52,-33.4344,-70.6589
391,Código: 102008038,Departamento,Departamento en Venta Usado Santiago - Metropolitana Ver ubicación,Mario Kreutzberger / Metro Santa Ana,$ 79.000.000,"UF 2.675,29",2,1,,43 m²,45 m²,44.690.166,27-05-2021,2020 1ºSem,52,-33.4365,-70.6599
392,Código: 102006265,Departamento,Departamento en Venta Usado Santiago - Metropolitana Ver ubicación,DPTO SAN MARTIN/ METRO SANTA ANA.,UF 2.428,$ 71.697.577,2,1,,47 m²,49 m²,55.499.561,08-06-2021,2020 1ºSem,52,-33.4338,-70.6592
393,Código: 52794,Departamento,Departamento en Venta Usado Santiago - Metropolitana Ver ubicación,Amunategui/San Pablo,UF 2.050,$ 60.535.434,1,1,,30 m²,,24.966.719,15-05-2021,2020 1ºSem,52,-33.4341,-70.6576
394,Código: 27003,Departamento,Departamento en Venta Usado Santiago - Metropolitana Ver ubicación,General Mackenna,UF 2.350,$ 69.394.278,1,1,,32 m²,32 m²,25.952.111,05-05-2021,2020 1ºSem,52,-33.4334,-70.6585
395,Código: 31,Departamento,Departamento en Venta Usado Santiago - Metropolitana Ver ubicación,BARRIO MAPOCHO,UF 3.700,$ 109.259.076,2,2,,"49,8 m²","52,4 m²",57.207.069,08-02-2021,2020 1ºSem,52,-33.4332,-70.6576
396,Código: 102151237,Departamento,Departamento en Venta Usado Santiago - Metropolitana Ver ubicación,Metro Cal y Canto,UF 3.100,$ 91.541.388,1,1,,58 m²,61 m²,60.151.089,25-09-2020,2020 1ºSem,52,-33.4346,-70.659
397,Código: 102375698,Departamento,Departamento en Venta Usado Santiago - Metropolitana Ver ubicación,Morandé / Santo Domingo,UF 5.650,$ 166.841.562,3,2,,74 m²,76 m²,69.697.554,06-05-2021,2020 1ºSem,52,-33.4363,-70.6543
398,Código: 45601,Departamento,Departamento en Venta Usado Santiago - Metropolitana Ver ubicación,Santo DOmingo/Teatinos,UF 2.690,$ 79.434.301,1,2,,49 m²,,49.754.510,01-05-2021,2020 1ºSem,52,-33.4365,-70.6565
399,Código: :codigo:,,:direccion: Ver ubicación,:titulo:,:precioUF:,:precioDespliegue:,:dormitoriosText:,1,,42 m²,"46,4 m²",49.933.396,15-04-2020,,52,-33.4343,-70.6566
400,Código: 102006056,Departamento,Departamento en Venta Usado Santiago - Metropolitana Ver ubicación,Metro Moneda,$ 100.000.000,"UF 3.386,45",2,1,,1 m²,1 m²,27.313.217,18-05-2021,,,-33.4319,-70.6575
401,Código: 27188,Departamento,Departamento en Venta Usado Santiago - Metropolitana Ver ubicación,Mario Kreutzberguer,UF 1.750,$ 51.676.590,1,1,,27 m²,29 m²,30.000.297,11-05-2021,2020 1ºSem,52,-33.4363,-70.6587
402,Código: 102008112,Departamento,Departamento en Venta Usado Santiago - Metropolitana Ver ubicación,San Martín / Rosas,$ 74.000.000,"UF 2.505,97",2,1,,42 m²,42 m²,35.513.619,10-06-2021,2020 1ºSem,52,-33.4358,-70.658
403,Código: 1028081009-6,Departamento,Departamento en Venta Usado Santiago - Metropolitana Ver ubicación,SAN MARTIN,UF 2.200,$ 64.964.856,1,1,,"34,1 m²","34,1 m²",31.255.069,10-06-2021,2020 1ºSem,52,-33.4337,-70.6587
404,Código: 1028024065-729,Departamento,Departamento en Venta Usado Santiago - Metropolitana Ver ubicación,Amunategui,UF 2.090,$ 61.716.613,1,1,,33 m²,33 m²,21.846.436,17-06-2021,2020 1ºSem,52,-33.4341,-70.6576
405,,,,,,,,,,,,:avaluoFiscalTotalPesos:,21-04-2021,,,-33.4338,-70.6585
406,Código: 102053272,Departamento,Departamento en Venta Usado Santiago - Metropolitana Ver ubicación,"Santo Domingo, cercano a Metro Santa Ana, Metro Plaza de Armas y Bellas Artes / Mall Vivo",UF 2.990,$ 88.293.145,2,2,,52 m²,127 m²,53.469.079,08-06-2021,2020 1ºSem,48,-33.4368,-70.6549
407,Código: 102073107,Departamento,Departamento en Venta Usado Santiago - Metropolitana Ver ubicación,Morande / Santo Domingo,UF 4.000,$ 118.117.920,2,2,,"62,5 m²","64,7 m²",58.935.748,04-01-2020,2020 1ºSem,52,-33.4362,-70.6544
408,Código: 102007982,Departamento,Departamento en Venta Usado Santiago - Metropolitana Ver ubicación,Mario Kreutzberger / Metro Santa Ana,$ 79.000.000,"UF 2.675,29",2,1,,43 m²,45 m²,44.690.166,16-05-2021,2020 1ºSem,52,-33.4365,-70.6599
409,,,,,,,,,,,,,29-12-2019,,,-33.4375,-70.6585
410,Código: 24562,Departamento,Departamento en Venta Usado Santiago - Metropolitana Ver ubicación,Pasaje Allende,$ 147.000.000,"UF 4.978,08",3,2,,74 m²,74 m²,3.229.474,11-03-2021,2020 1ºSem,51,-33.4535,-70.6596
411,Código: 1028018146-77,Departamento,Departamento en Venta Usado Santiago - Metropolitana Ver ubicación,ELEUTERIO RAMIREZ,UF 2.100,$ 62.011.908,1,1,,32 m²,32 m²,25.032.384,27-11-2019,2020 1ºSem,51,-33.4505,-70.6554
412,Código: 17003,Departamento,Departamento en Venta Usado Santiago - Metropolitana Ver ubicación,lord cochrane,UF 1.850,$ 54.629.538,1,1,,21 m²,21 m²,19.690.996,05-11-2020,2020 1ºSem,44,-33.4539,-70.6544
413,Código: 1028050080-41,Departamento,Departamento en Venta Usado Santiago - Metropolitana Ver ubicación,Dieciocho,UF 2.325,$ 68.656.041,2,1,,38 m²,38 m²,63.582.677,15-05-2021,2020 1ºSem,51,-33.4531,-70.657
414,Código: 102006213,Departamento,Departamento en Venta Usado Santiago - Metropolitana Ver ubicación,Blanco Encalada /2D -1B / 62m2 /cod.ee1,UF 3.800,$ 112.212.024,2,1,,56 m²,62 m²,44.783.030,04-06-2021,2020 1ºSem,51,-33.4565,-70.659
415,,,,:titulo:,:precioUF:,:precioDespliegue:,:dormitoriosText:,:,:superficieTerreno: m²,:metrosUtiles: m²,:metrosConstruidos: m²,:avaluoFiscalTotalPesos:,:fechaPublicacionDespliegue:,,,-33.4508,-70.6541
416,,,,,:precioUF:,:precioDespliegue:,:dormitoriosText:,:,:superficieTerreno: m²,:metrosUtiles: m²,:metrosConstruidos: m²,:avaluoFiscalTotalPesos:,:fechaPublicacionDespliegue:,2020 1ºSem,44,-33.4539,-70.6543
417,Código: 102053185,Departamento,Departamento en Venta Usado Santiago - Metropolitana Ver ubicación,Avenida Ejército 688 / SIN DEUDA,UF 4.400,$ 129.929.712,3,2,,78 m²,80 m²,56.589.587,31-05-2021,2020 1ºSem,51,-33.4553,-70.6597
418,Código: 52601,Departamento,Departamento en Venta Usado Santiago - Metropolitana Ver ubicación,(MR) Eleuterio Ramírez/Nataniel Cox,$ 85.000.000,"UF 2.878,48",1,1,,30 m²,,24.089.912,29-04-2021,2020 1ºSem,51,-33.45,-70.6537
419,Código: Add845620,Departamento,Departamento en Venta Usado Santiago - Metropolitana Ver ubicación,Eyzaguirre,$ 143.000.000,"UF 4.842,62",3,2,73 m²,70 m²,70 m²,53.211.646,20-04-2020,2020 1ºSem,51,-33.4526738,-70.6524234
420,Código: 44741,Departamento,Departamento en Venta Usado Santiago - Metropolitana Ver ubicación,(MR)LORD COCHRANE/ELEUTERIO RÁMIREZ,UF 4.000,$ 118.117.920,3,2,,67 m²,,56.532.972,16-12-2020,2020 1ºSem,51,-33.4501,-70.6544
421,Código: 102006221,Departamento,Departamento en Venta Usado Santiago - Metropolitana Ver ubicación,Blanco Encalada /2D -2B /54m2 /cod.ee1,UF 2.678,$ 79.079.947,2,2,,52 m²,54 m²,48.889.311,04-06-2021,2020 1ºSem,51,-33.4563,-70.6583
422,Código: 102008096,Departamento,Departamento en Venta Usado Santiago - Metropolitana Ver ubicación,Lord Cochrane / Eleuterio,$ 79.000.000,"UF 2.675,29",2,1,,48 m²,50 m²,32.980.249,08-06-2021,2020 1ºSem,51,-33.4502,-70.6538
423,Código: 1028080032-1,Departamento,Departamento en Venta Usado Santiago - Metropolitana Ver ubicación,Lindo departamento en Santiago Centro 2D+2B,$ 85.000.000,"UF 2.878,48",2,2,,54 m²,54 m²,40.542.771,27-05-2021,2020 1ºSem,51,-33.45,-70.6547
424,Código: 52066,Departamento,Departamento en Venta Usado Santiago - Metropolitana Ver ubicación,(MR)San Ignacio de Loyola/Coquimbo,$ 79.000.000,"UF 2.675,29",3,1,,51 m²,,30.806.120,26-03-2021,2020 1ºSem,44,-33.4573,-70.6554
425,,,,,,,,,,:metrosUtiles: m²,38 m²,28.052.597,12-05-2021,,,-33.4582,-70.6508
426,Código: 102037185,Departamento,Departamento en Venta Usado Santiago - Metropolitana Ver ubicación,Paseo Bulnes / A dos cuadras de La Moneda,$ 209.000.000,"UF 7.077,67",3,2,,150 m²,150 m²,76.047.994,30-01-2019,2020 1ºSem,48,-33.4505,-70.6526
427,,,,,,,,,,,,,,,,,
428,Código: 101074304,Casa,Casa en Venta Usado Las Condes - Metropolitana Ver ubicación,Otoñal Oriente,UF 24.800,$ 732.331.104,6,5,560 m²,260 m²,,329.587.673,10-06-2020,2020 1ºSem,92,-33.4077,-70.513
429,Código: 101161956,Casa,Casa en Venta Usado Las Condes - Metropolitana Ver ubicación,Colegio Padre Hurtado y Juanita de los Andes,UF 35.000,$ 1.033.531.800,6,4,930 m²,340 m²,,412.431.022,22-05-2021,2020 1ºSem,92,-33.4085,-70.5127
430,Código: 101053144,Casa,Casa en Venta Usado Las Condes - Metropolitana Ver ubicación,LA FUENTE,UF 23.500,$ 693.942.780,4,3,845 m²,277 m²,277 m²,277.939.276,10-06-2020,2020 1ºSem,73,-33.4085,-70.5191
431,Código: 101031884,Casa,Casa en Venta Usado Las Condes - Metropolitana Ver ubicación,otoñal,UF 43.000,$ 1.269.767.640,8,8,2.160 m²,600 m²,600 m²,558.797.645,10-06-2020,2020 1ºSem,73,-33.4071,-70.5176
432,Código: 101070910,Casa,Casa en Venta Usado Las Condes - Metropolitana Ver ubicación,Otoñal,UF 28.500,$ 841.590.180,5,4,1.000 m²,300 m²,,322.862.424,29-09-2019,2020 1ºSem,73,-33.4085,-70.5167
433,Código: 1577484,Casa,Casa en Venta Usado Las Condes - Metropolitana Ver ubicación,San Ramón / General Blanche,UF 21.900,$ 646.695.612,3,4,"557,5 m²",207 m²,,242.626.725,27-05-2021,2020 1ºSem,92,-33.4031,-70.5112
434,Código: 1028018019-328,Casa,Casa en Venta Usado Las Condes - Metropolitana Ver ubicación,Camino Las Vertientes El alba,UF 24.500,$ 723.472.260,5,5,591 m²,344 m²,,4.207.868,12-06-2021,2020 1ºSem,92,-33.4004,-70.5163
435,Código: 1571199,Departamento,Departamento en Venta Usado Las Condes - Metropolitana Ver ubicación,Cálido y Luminoso Monte Alegre/ Tour virtual,UF 9.200,$ 271.671.216,3,3,,125 m²,140 m²,84.497.800,30-04-2021,2020 1ºSem,73,-33.4264,-70.5891
436,Código: 102041623,Departamento,Departamento en Venta Usado Las Condes - Metropolitana Ver ubicación,Av. Cristobal Colon /Tobalaba,UF 8.500,$ 251.000.580,3,3,,96 m²,112 m²,92.122.555,17-08-2019,2020 1ºSem,73,-33.426,-70.5888
437,,,,,,,,,,,,,,,,,
438,Código: 102072606,Departamento,Departamento en Venta Usado Las Condes - Metropolitana Ver ubicación,Vaticano/Flandes/Alcántara,UF 9.200,$ 271.671.216,3,3,,110 m²,120 m²,101.067.089,23-11-2019,2020 1ºSem,73,-33.4263,-70.5837
439,Código: 102045436,Departamento,Departamento en Venta Usado Las Condes - Metropolitana Ver ubicación,CÉSAR CASCABEL / MARTÍN DE ZAMORA / AMÉRICO VESPUCIO,UF 10.500,$ 310.059.540,4,4,,140 m²,163 m²,119.743.413,30-03-2021,2020 1ºSem,73,-33.4223,-70.5811
440,Código: 102070702,Departamento,Departamento en Venta Usado Las Condes - Metropolitana Ver ubicación,Portofino,UF 12.950,$ 382.406.766,3,4,,140 m²,150 m²,151.540.615,06-09-2019,2020 1ºSem,88,-33.4208,-70.5824
441,Código: 101376197,Casa,Casa en Venta Usado Las Condes - Metropolitana Ver ubicación,AMERICO VESP,UF 16.000,$ 472.471.680,2,3,325 m²,"122,3 m²",,184.971.990,04-06-2021,2020 1ºSem,102,-33.4244,-70.5824
442,Código: 102078600,Departamento,Departamento en Venta Usado Las Condes - Metropolitana Ver ubicación,Málaga-Martín de Zamora -Colón,UF 11.700,$ 345.494.916,3,2,,143 m²,151 m²,144.860.000,01-06-2021,2020 1ºSem,73,-33.4236,-70.5832
443,Código: 102005077,Departamento,Departamento en Venta Usado Las Condes - Metropolitana Ver ubicación,Martin de Zamora / Alcantara,UF 5.827,$ 172.068.279,2,2,,64 m²,70 m²,63.923.031,30-06-2021,2020 1ºSem,88,-33.4232,-70.5896
444,Código: 6436,Departamento,Departamento en Venta Usado Las Condes - Metropolitana Ver ubicación,Málaga,UF 10.000,$ 295.294.800,4,3,,140 m²,140 m²,90.497.017,05-11-2020,2020 1ºSem,73,-33.4247,-70.5835
445,Código: 52420,Departamento,Departamento en Venta Usado Las Condes - Metropolitana Ver ubicación,Cristobal Colon/Av. Américo Vespucio,$ 270.000.000,"UF 9.143,41",4,3,,110 m²,,89.950.767,15-04-2021,2020 1ºSem,73,-33.4224,-70.582
446,Código: 1028046041-120,Departamento,Departamento en Venta Usado Las Condes - Metropolitana Ver ubicación,Soria,UF 14.800,$ 437.036.304,3,3,,"125,4 m²","144,8 m²",170.491.628,15-06-2021,2020 1ºSem,78,-33.4205,-70.58
447,Código: 102053197,Departamento,Departamento en Venta Usado Las Condes - Metropolitana Ver ubicación,AV. COLON / AMERICO VESPUCIO,UF 9.900,$ 292.341.852,3,4,,116 m²,136 m²,137.183.173,14-05-2021,2020 1ºSem,73,-33.4237,-70.5819
448,Código: Add1066088,Departamento,Departamento en Venta Usado Las Condes - Metropolitana Ver ubicación,METRO ESCUELA MILITAR,UF 11.200,$ 330.730.176,4,3,155 m²,135 m²,155 m²,154.606.399,11-05-2021,2020 1ºSem,88,-33.4208606,-70.5828526
449,,,,,,,,,,,,,,,,,
450,Código: 1577922,Casa,Casa en Venta Usado Las Condes - Metropolitana Ver ubicación,Moderna y funcional casa/Tour virtual,UF 13.000,$ 383.883.240,3,3,190 m²,107 m²,,128.625.446,17-06-2021,2020 1ºSem,102,-33.4263,-70.5827
451,Código: 102019209,Departamento,Departamento en Venta Usado Las Condes - Metropolitana Ver ubicación,MARTIN DE ZAMORA / VESPUCIO SUR,UF 9.100,$ 268.718.268,3,3,,110 m²,"117,5 m²",120.426.801,24-06-2021,2020 1ºSem,88,-33.4217,-70.5813
452,Código: 1576857,Departamento,Departamento en Venta Usado Las Condes - Metropolitana Ver ubicación,"Luminoso, óptima conectividad/ Tour virtual",UF 9.200,$ 271.671.216,3,3,,111 m²,123 m²,89.950.767,30-04-2021,2020 1ºSem,73,-33.4224,-70.582
453,Código: 101037457,Casa,Casa en Venta Usado Las Condes - Metropolitana Ver ubicación,"Golf, Sur",UF 44.000,$ 1.299.297.120,4,3,860 m²,384 m²,,569.786.189,08-05-2021,2020 1ºSem,102,-33.4224,-70.5867
454,Código: 102011674,Departamento,Departamento en Venta Usado Las Condes - Metropolitana Ver ubicación,Vespucio / Martín de Zamora,UF 7.800,$ 230.329.944,2,2,,75 m²,75 m²,76.821.956,26-06-2021,2020 1ºSem,78,-33.4207,-70.5806
455,Código: 23426,Departamento,Departamento en Venta Usado Las Condes - Metropolitana Ver ubicación,Avenida Cristobal Colón,UF 7.750,$ 228.853.470,3,3,,92 m²,98 m²,97.153.238,11-02-2021,2020 1ºSem,73,-33.4263,-70.5862
456,,,,,:precioUF:,:precioDespliegue:,:dormitoriosText:,:,:superficieTerreno: m²,:metrosUtiles: m²,:metrosConstruidos: m²,:avaluoFiscalTotalPesos:,:fechaPublicacionDespliegue:,,,-33.421,-70.5846
457,,,,,,$ 227.376.996,3,3,,110 m²,110 m²,97.153.238,24-03-2021,2020 1ºSem,73,-33.4254,-70.5864
458,Código: 52779,Casa,Casa en Venta Usado Lo Barnechea - Metropolitana Ver ubicación,(VR) ESTADIO BARNECHEA/(VR) CERRO 18,$ 56.500.000,"UF 1.913,34",3,1,32 m²,32 m²,,14.963.896,15-05-2021,2020 1ºSem,60,-33.355,-70.5007
459,Código: 27709,Casa,Casa en Venta Usado Lo Barnechea - Metropolitana Ver ubicación,Los Prados,UF 16.000,$ 472.471.680,3,3,400 m²,160 m²,,131.003.375,19-05-2021,2020 1ºSem,60,-33.3517,-70.5058
460,Código: 22365,Departamento,Departamento en Venta Usado Lo Barnechea - Metropolitana Ver ubicación,Lastra,UF 4.200,$ 124.023.816,3,2,,58 m²,60 m²,57.876.292,26-01-2021,2020 1ºSem,66,-33.3568,-70.5035
461,Código: 50028,Casa,Casa en Venta Usado Lo Barnechea - Metropolitana Ver ubicación,AV LO BARNECHEA/CALLE VECINAL,UF 7.350,$ 217.041.678,3,2,127 m²,95 m²,,70.746.082,13-12-2020,2020 1ºSem,60,-33.3581,-70.5045
462,Código: 1131,Casa,Casa en Venta Usado Lo Barnechea - Metropolitana Ver ubicación,LA DEHESA CENTRAL,UF 14.995,$ 442.794.552,5,6,716 m²,188 m²,,,02-08-2019,2020 1ºSem,60,-33.3516,-70.5044
463,Código: Add503117,Casa,Casa en Venta Usado Lo Barnechea - Metropolitana Ver ubicación,Hermosa casa rústica en Los Prados de La Dehesa,UF 13.500,$ 398.647.980,4,3,393 m²,,139 m²,131.003.375,18-07-2018,2020 1ºSem,60,-33.3516742,-70.5057633
464,Código: 29092,Casa,Casa en Venta Usado Lo Barnechea - Metropolitana Ver ubicación,CAMINO DEL CORREGIDOR,UF 49.500,$ 1.461.709.260,6,6,2.061 m²,692 m²,,655.452.809,30-06-2021,2020 1ºSem,60,-33.3567,-70.507
465,Código: 102073658,Departamento,Departamento en Venta Usado Quinta Normal - Metropolitana Ver ubicación,Rivas Vicuña / Aguirre,UF 1.938,$ 57.228.132,3,1,,50 m²,52 m²,17.476.933,21-02-2020,2020 1ºSem,31,-33.4294,-70.6829
466,Código: 52444,Departamento,Departamento en Venta Usado Quinta Normal - Metropolitana Ver ubicación,(AR) Poeta Pedro Prado/Av. Carrascal,$ 70.000.000,"UF 2.370,51",3,1,,59 m²,,16.362.973,17-04-2021,2020 1ºSem,31,-33.4251,-70.6859
467,Código: 102008831,Departamento,Departamento en Venta Usado Las Condes - Metropolitana Ver ubicación,El Golf,UF 13.900,$ 410.459.772,3,2,,130 m²,170 m²,103.861.515,28-05-2021,2020 1ºSem,87,-33.4094,-70.5898
468,Código: 102064600,Departamento,Departamento en Venta Usado Vitacura - Metropolitana Ver ubicación,Las Hualtatas con Pio XI,UF 13.500,$ 398.647.980,4,3,,150 m²,150 m²,172.923.261,14-01-2020,2020 1ºSem,89,-33.4009,-70.5819
469,Código: 102135373,Departamento,Departamento en Venta Usado Vitacura - Metropolitana Ver ubicación,Las Hualtatas / El Arcángel,UF 13.300,$ 392.742.084,3,3,,140 m²,160 m²,178.872.236,08-06-2021,2020 1ºSem,89,-33.4013,-70.5832
470,Código: 102029792,Departamento,Departamento en Venta Usado Vitacura - Metropolitana Ver ubicación,Sector Parque Arauco/Av.Presidente Kennedy/El Arcangel,UF 16.000,$ 472.471.680,4,3,,200 m²,220 m²,187.907.508,30-01-2019,2020 1ºSem,89,-33.4016,-70.5828
471,Código: 102078168,Departamento,Departamento en Venta Usado Vitacura - Metropolitana Ver ubicación,Las Hualtatas /Pio XI,UF 12.800,$ 377.977.344,3,4,,135 m²,180 m²,186.886.342,18-04-2021,2020 1ºSem,89,-33.4004,-70.581
472,Código: 102008588,Departamento,Departamento en Venta Usado Vitacura - Metropolitana Ver ubicación,Las Hualtatas,UF 11.300,$ 333.683.124,2,3,,140 m²,260 m²,160.703.676,28-05-2021,2020 1ºSem,85,-33.4008,-70.5869
473,Código: 102078933,Departamento,Departamento en Venta Usado Vitacura - Metropolitana Ver ubicación,El Tamarugo/ Vitacura,UF 15.400,$ 454.753.992,2,3,,113 m²,140 m²,176.919.762,01-07-2021,2020 1ºSem,85,-33.4006,-70.5861
474,Código: 102005686,Departamento,Departamento en Venta Usado Vitacura - Metropolitana Ver ubicación,Alonso de Cordova con Av. Americo Vespucio,UF 12.490,$ 368.823.205,3,3,,128 m²,147 m²,172.833.600,11-05-2021,2020 1ºSem,83,-33.4038,-70.5888
475,Código: 102064029,Departamento,Departamento en Venta Usado Vitacura - Metropolitana Ver ubicación,Alonso de Cordova,UF 22.000,$ 649.648.560,3,5,,280 m²,380 m²,268.333.818,18-05-2019,2020 1ºSem,83,-33.4043,-70.5891
476,Código: 1546692,Departamento,Departamento en Venta Usado Vitacura - Metropolitana Ver ubicación,El Tamarugo - Arturo Ureta,UF 17.500,$ 516.765.900,3,4,,208 m²,,205.563.879,09-10-2019,2020 1ºSem,89,-33.4019,-70.5848
477,Código: 102375348,Departamento,Departamento en Venta Usado Las Condes - Metropolitana Ver ubicación,Parque Arauco,UF 14.300,$ 422.271.564,4,3,,140 m²,"95,8 m²",113.129.508,07-04-2021,2020 1ºSem,70,-33.4059,-70.5846
478,Código: 1028037084-41,Departamento,Departamento en Venta Usado Vitacura - Metropolitana Ver ubicación,El Clonqui,UF 12.490,$ 368.823.205,:dormitoriosText:,3,:superficieTerreno: m²,:metrosUtiles: m²,:metrosConstruidos: m²,:avaluoFiscalTotalPesos:,:fechaPublicacionDespliegue:,2020 1ºSem,83,-33.4036,-70.5891
479,Código: Add782409,Departamento,Departamento en Venta Usado Vitacura - Metropolitana Ver ubicación,SE VENDE-Lindo Depto en Sector Las Hualtatas-Pio XI-Vitacura,UF 12.500,$ 369.118.500,3,3,,,140 m²,192.848.937,13-12-2019,2020 1ºSem,89,-33.4001494,-70.5807349
480,Código: 102158618,Departamento,Departamento en Venta Usado Vitacura - Metropolitana Ver ubicación,Américo Vespucio Norte / Las Hualtatas,UF 15.000,$ 442.942.200,3,2,,190 m²,220 m²,184.424.189,03-01-2019,2020 1ºSem,85,-33.4015,-70.5868
481,Código: 420978,Departamento,Departamento en Venta Usado Vitacura - Metropolitana Ver ubicación,Las Hualtatas / Vespucio,UF 14.500,$ 428.177.460,3,4,,140 m²,178 m²,200.406.042,09-06-2021,2020 1ºSem,89,-33.4015,-70.5835
482,Código: 1548902,Departamento,Departamento en Venta Usado Las Condes - Metropolitana Ver ubicación,Alonso de Cordova Vista Panoramica,UF 18.500,$ 546.295.380,3,3,,240 m²,390 m²,111.650.229,12-12-2018,2020 1ºSem,70,-33.4052,-70.5836
