,cod_propiedad,tipo_propiedad,info_general,nombre_propiedad,precio_a,precio_b,n_dormitorios,n_banos,sup_terreno,sup_util,sup_construida,aval_fiscal,fecha_publicacion,fecha_plusvalia,valor_plusvalia,latitud,longitud
0,Código: :codigo:,,:direccion: Ver ubicación,:titulo:,:precioUF:,:precioDespliegue:,,1,,50 m²,60 m²,39.482.734,03-03-2021,,,-33.4041,-70.5949
1,Código: :codigo:,,:direccion: Ver ubicación,:titulo:,:precioUF:,:precioDespliegue:,,3,,280 m²,280 m²,262.310.282,10-06-2021,2020 1ºSem,83,-33.4059,-70.594
2,Código: EB-GU1844,Departamento,Departamento en Arriendo Vitacura - Metropolitana Ver ubicación,Vitacura.,UF 80,$ 2.362.358,4,3,,243 m²,,,03-06-2021,2020 1ºSem,83,-33.4025,-70.5969
3,Código: 28530,Departamento,Departamento en Arriendo Vitacura - Metropolitana Ver ubicación,Armando Jaramillo,$ 1.000.030,"UF 33,87",3,2,,110 m²,140 m²,,12-06-2021,2020 1ºSem,83,-33.4028,-70.5942
4,Código: 201075955,Casa,Casa en Arriendo Vitacura - Metropolitana Ver ubicación,Nueva Costanera,UF 280,$ 8.268.254,7,4,615 m²,293 m²,,615.583.793,09-10-2020,2020 1ºSem,104,-33.4,-70.5983
5,Código: 26106,Departamento,Departamento en Arriendo Vitacura - Metropolitana Ver ubicación,Alonso de Córdova,$ 1.300.000,"UF 44,02",3,3,,160 m²,170 m²,143.078.159,15-04-2021,2020 1ºSem,91,-33.4004,-70.5977
6,Código: 202051998,Departamento,Departamento en Arriendo Vitacura - Metropolitana Ver ubicación,Las Catalpas/Vitacura,$ 370.000,"UF 12,53",1,1,,32 m²,32 m²,31.956.490,29-12-2020,2020 1ºSem,83,-33.4071,-70.5981
7,Código: 202373604,Departamento,Departamento en Arriendo Vitacura - Metropolitana Ver ubicación,Las Nieves,$ 650.000,"UF 22,01",2,2,,74 m²,81 m²,58.318.394,23-04-2021,2020 1ºSem,83,-33.4041,-70.5936
8,Código: 52391,Departamento,Departamento en Arriendo Vitacura - Metropolitana Ver ubicación,ALONSO DE CORDOVA - VITACURA/LAS NIEVES,$ 470.000,"UF 15,92",1,1,,50 m²,,39.482.734,16-04-2021,2020 1ºSem,83,-33.4045,-70.5948
9,Código: MAL1908,Departamento,Departamento en Arriendo Vitacura - Metropolitana Ver ubicación,Departamento Amoblado Las Nieves,UF 85,$ 2.510.005,3,4,,380 m²,380 m²,,04-01-2021,2020 1ºSem,83,-33.4065,-70.5952
10,Código: 202375113,Departamento,Departamento en Arriendo Vitacura - Metropolitana Ver ubicación,Las Nieves /Las Catalpas,$ 900.000,"UF 30,48",3,2,,126 m²,150 m²,5.971.894,20-03-2021,2020 1ºSem,83,-33.4068,-70.5984
11,Código: 77,Departamento,Departamento en Arriendo Vitacura - Metropolitana Ver ubicación,PARQUE BICENTENARIO / NUEVA COSTANERA,UF 30,$ 885.884,2,2,,67 m²,70 m²,2.082.266,01-07-2021,2020 1ºSem,28,-33.4054,-70.5991
12,Código: 202005526,Departamento,Departamento en Arriendo Recoleta - Metropolitana Ver ubicación,Avenida Santo Dumont,$ 300.000,"UF 10,16",2,1,,43 m²,"44,8 m²",,10-06-2021,,,-33.4215,-70.6493
13,Código: 202006572,Departamento,Departamento en Arriendo Recoleta - Metropolitana Ver ubicación,Santos Dumont con Av. Perú,$ 390.000,"UF 13,21",3,2,,62 m²,64 m²,29.838.961,22-05-2021,2020 1ºSem,50,-33.4224,-70.6409
14,Código: 53279,Departamento,Departamento en Arriendo Recoleta - Metropolitana Ver ubicación,LORETO/ STA FILOMENA/BARRIO BELLAVISTA,$ 300.000,"UF 10,16",1,1,,40 m²,,,18-06-2021,2020 1ºSem,47,-33.4296,-70.6421
15,,Departamento,Departamento en Arriendo Recoleta - Metropolitana Ver ubicación,santos Dumont,$ 520.000,"UF 17,61",2,2,,56 m²,63 m²,,24-04-2021,2020 1ºSem,44,-33.4219,-70.6476
16,,,,,:precioUF:,"UF 7,11",1,1,,24 m²,24 m²,11.438.272,05-02-2021,2020 1ºSem,44,-33.4258,-70.6463
17,Código: 202005257,Departamento,Departamento en Arriendo Recoleta - Metropolitana Ver ubicación,Cerca del metro Patronato y Cerro Blanco,$ 430.000,"UF 14,56",2,2,,74 m²,143 m²,25.871.800,01-07-2021,2020 1ºSem,47,-33.4262,-70.6436
18,Código: 202058146,Departamento,Departamento en Arriendo Vitacura - Metropolitana Ver ubicación,TUPUNGATO/CORTE APELACIONES,$ 830.000,"UF 28,11",4,3,,107 m²,110 m²,98.344.966,12-03-2021,2020 1ºSem,67,-33.3843,-70.5373
19,Código: 202059211,Departamento,Departamento en Arriendo Vitacura - Metropolitana Ver ubicación,La Llaveria/Kennedy,$ 980.000,"UF 33,19",4,3,,108 m²,116 m²,1.085.784.366,26-04-2021,2020 1ºSem,67,-33.3853,-70.5392
20,Código: 27838,Departamento,Departamento en Arriendo Vitacura - Metropolitana Ver ubicación,Tabancura,$ 1.150.000,"UF 38,94",3,3,,130 m²,140 m²,127.193.905,25-05-2021,2020 1ºSem,67,-33.3837,-70.535
21,Código: 1028018296-5,Departamento,Departamento en Arriendo Las Condes - Metropolitana Ver ubicación,Kennedy Lateral,$ 1.950.000,"UF 66,04",4,4,,244 m²,244 m²,214.476.390,17-06-2021,2020 1ºSem,67,-33.3846,-70.5363
22,Código: 1574550,Departamento,Departamento en Arriendo Las Condes - Metropolitana Ver ubicación,"Oficina de 47 m2, 2 privados con sala espera",UF 17,$ 502.001,2,2,,47 m²,,,29-01-2021,2020 1ºSem,82,-33.3839,-70.5333
23,Código: 202712273,Departamento,Departamento en Arriendo Vitacura - Metropolitana Ver ubicación,Corte de Apelaciones con Av. Kennedy Lateral,$ 670.000,"UF 22,69",2,2,,94 m²,108 m²,122.480.011,24-06-2021,2020 1ºSem,67,-33.3849,-70.5373
24,Código: EB-HR9100,Departamento,Departamento en Arriendo Vitacura - Metropolitana Ver ubicación,Tabancura.,UF 37,$ 1.092.590,3,2,,130 m²,,,10-06-2021,2020 1ºSem,102,-33.3803,-70.5367
25,Código: 202375428,Departamento,Departamento en Arriendo Santiago - Metropolitana Ver ubicación,Monjitas con San Antonio,$ 230.000,"UF 7,79",1,1,,30 m²,32 m²,33.986.666,10-04-2021,2020 1ºSem,59,-33.4372,-70.6479
26,Código: 1028068026-28,Departamento,Departamento en Arriendo Santiago - Metropolitana Ver ubicación,Cómodo departamento en el corazón de Lastarrias,$ 290.000,"UF 9,82",1,1,,37 m²,39 m²,41.309.378,19-05-2021,2020 1ºSem,59,-33.4373,-70.6456
27,Código: 202375259,Departamento,Departamento en Arriendo Santiago - Metropolitana Ver ubicación,Metro Bellas Artes,$ 250.000,"UF 8,47",1,1,,38 m²,38 m²,839.366,31-03-2021,2020 1ºSem,59,-33.4387,-70.6448
28,Código: 202073384,Departamento,Departamento en Arriendo Recoleta - Metropolitana Ver ubicación,Avda. Santa María / Parque Forestal,$ 800.000,"UF 27,09",5,3,,240 m²,260 m²,47.181.573,19-05-2021,2020 1ºSem,55,-33.4331,-70.6446
29,,,,,:precioUF:,"UF 12,53",2,1,,70 m²,70 m²,60.640.149,04-01-2021,,,-33.4372,-70.6486
30,Código: 202375044,Departamento,Departamento en Arriendo Santiago - Metropolitana Ver ubicación,Merced con Mac Iver,$ 230.000,"UF 7,79",1,1,,22 m²,22 m²,23.766.831,11-05-2021,2020 1ºSem,59,-33.4378,-70.647
31,Código: 202007868,Departamento,Departamento en Arriendo Santiago - Metropolitana Ver ubicación,Barrio Lastarria / Metro U. Católica,$ 370.000,"UF 12,53",1,1,,36 m²,36 m²,43.935.589,31-03-2021,2020 1ºSem,59,-33.4394,-70.6414
32,Código: 202708676,Departamento,Departamento en Arriendo Santiago - Metropolitana Ver ubicación,José Victorino Lastarria /Metro Universidad Católica,$ 450.000,"UF 15,24",2,2,,57 m²,57 m²,28.458.161,04-02-2020,2020 1ºSem,59,-33.4399,-70.641
33,Código: 202143931,Departamento,Departamento en Arriendo Santiago - Metropolitana Ver ubicación,Barrio Lastarria,$ 350.000,"UF 11,85",1,1,,38 m²,38 m²,45.366.230,25-09-2020,2020 1ºSem,59,-33.439,-70.6412
34,Código: 202006598,Departamento,Departamento en Arriendo Santiago - Metropolitana Ver ubicación,Santo Domingo / Mac Iver (AMOBLADO Y EQUIPADO),$ 300.000,"UF 10,16",1,1,,35 m²,35 m²,85.202.051,12-03-2021,2020 1ºSem,59,-33.4354,-70.6481
35,,,,,,,,,,,30 m²,31.490.628,13-03-2021,,,-33.43711413,-70.64659311
36,Código: 53258,Departamento,Departamento en Arriendo Santiago - Metropolitana Ver ubicación,Huerfanos/Merced,$ 350.000,"UF 11,85",1,1,,48 m²,,,15-06-2021,2020 1ºSem,59,-33.4383,-70.6448
37,Código: 202375394,Departamento,Departamento en Arriendo Santiago - Metropolitana Ver ubicación,Lastarria con Alameda,$ 260.000,"UF 8,8",1,1,,33 m²,33 m²,47.740.159,18-04-2021,2020 1ºSem,59,-33.4394,-70.6414
38,Código: 202374869,Departamento,Departamento en Arriendo Santiago - Metropolitana Ver ubicación,Parque Forestal /Metro Bellas Artes,$ 330.000,"UF 11,18",1,1,,30 m²,30 m²,34.988.346,13-03-2021,2020 1ºSem,59,-33.43555332,-70.64594282
39,,,Departamento en Arriendo Santiago - Metropolitana Ver ubicación,Monjitas con San Antonio,$ 380.000,"UF 12,87",2,2,,70 m²,71 m²,55.846.125,25-01-2021,2020 1ºSem,59,-33.4372,-70.6479
40,Código: 1028072018-27,Departamento,Departamento en Arriendo Santiago - Metropolitana Ver ubicación,Monjitas,$ 340.000,"UF 11,51",1,1,,35 m²,35 m²,405.272,24-06-2021,2020 1ºSem,59,-33.4366,-70.6444
41,Código: 202053200,Departamento,Departamento en Arriendo Santiago - Metropolitana Ver ubicación,Amoblado/Metro Santa Lucía,$ 300.000,"UF 10,16",1,1,,32 m²,37 m²,25.849.326,02-06-2021,2020 1ºSem,59,-33.4393,-70.6455
42,Código: 202375448,Departamento,Departamento en Arriendo Recoleta - Metropolitana Ver ubicación,Parque Forestal,$ 425.000,"UF 14,39",2,2,,60 m²,63 m²,29.200.140,29-04-2021,2020 1ºSem,55,-33.4334,-70.6418
43,Código: 202031104,Departamento,Departamento en Arriendo Santiago - Metropolitana Ver ubicación,Merced con Lastarria,$ 450.000,"UF 15,24",2,2,,80 m²,80 m²,72.950.330,23-04-2021,2020 1ºSem,59,-33.437,-70.6401
44,,,,,,,,,,,:metrosConstruidos: m²,,05-11-2020,,,-33.4386,-70.6419
45,Código: 202232018,Departamento,Departamento en Arriendo Santiago - Metropolitana Ver ubicación,Bellas Artes,$ 1.700.000,"UF 57,57",3,2,,200 m²,220 m²,237.680.422,22-10-2020,2020 1ºSem,59,-33.4376,-70.6443
46,Código: 202376072,Departamento,Departamento en Arriendo Santiago - Metropolitana Ver ubicación,Merced con Mac Iver,$ 290.000,"UF 9,82",1,1,,30 m²,32 m²,29.068.025,27-05-2021,2020 1ºSem,59,-33.4378,-70.6473
47,Código: 202374628,Departamento,Departamento en Arriendo Santiago - Metropolitana Ver ubicación,Merced con Mosqueto,$ 290.000,"UF 9,82",2,1,,44 m²,45 m²,50.890.455,24-02-2021,2020 1ºSem,59,-33.438,-70.6448
48,,Departamento,Departamento en Arriendo Santiago - Metropolitana Ver ubicación,Padre Luis de Valdivia,$ 350.000,"UF 11,85",1,1,,37 m²,37 m²,36.978.916,05-11-2020,2020 1ºSem,59,-33.4386,-70.6419
49,Código: 202375045,Departamento,Departamento en Arriendo Santiago - Metropolitana Ver ubicación,Merced con Mac Iver,$ 230.000,"UF 7,79",1,1,,22 m²,22 m²,23.766.831,11-05-2021,2020 1ºSem,59,-33.4378,-70.647
50,Código: 1028071003-121,Departamento,Departamento en Arriendo Santiago - Metropolitana Ver ubicación,Jose Victorino Lastarria,$ 320.000,"UF 10,84",1,1,,46 m²,46 m²,68.894.313,22-06-2021,2020 1ºSem,59,-33.4389,-70.6412
51,Código: 29114,Departamento,Departamento en Arriendo Ñuñoa - Metropolitana Ver ubicación,Avenida Irarrázaval,$ 350.000,"UF 11,85",1,1,,32 m²,32 m²,35.986.976,27-06-2021,2020 1ºSem,75,-33.4567,-70.5978
52,,,,,,,,,,,,,,,,,
53,Código: 1028018010-360,Departamento,Departamento en Arriendo Ñuñoa - Metropolitana Ver ubicación,Holanda,$ 400.000,"UF 13,55",1,1,,37 m²,42 m²,,12-05-2021,2020 1ºSem,70,-33.4539,-70.5966
54,Código: 20382,Departamento,Departamento en Arriendo Ñuñoa - Metropolitana Ver ubicación,Irarrázaval,$ 400.000,"UF 13,55",1,1,,35 m²,38 m²,1.488.078,10-06-2021,2020 1ºSem,59,-33.4556,-70.5904
55,Código: 202078849,Departamento,Departamento en Arriendo Ñuñoa - Metropolitana Ver ubicación,Plaza Ñuñoa,$ 400.000,"UF 13,55",1,1,,35 m²,38 m²,40.167.322,24-06-2021,2020 1ºSem,59,-33.4562,-70.5902
56,Código: 202373957,Departamento,Departamento en Arriendo Ñuñoa - Metropolitana Ver ubicación,Metro Chile España,$ 400.000,"UF 13,55",2,1,,46 m²,46 m²,35.931.907,25-01-2021,2020 1ºSem,70,-33.4552,-70.5973
57,Código: 201077457,Casa,Casa en Arriendo Ñuñoa - Metropolitana Ver ubicación,A una cuadra de Plaza Ñuñoa,$ 3.800.000,"UF 128,68",4,5,180 m²,165 m²,,91.196.826,12-05-2021,2020 1ºSem,65,-33.4551,-70.592
58,Código: 16143,Departamento,Departamento en Arriendo Ñuñoa - Metropolitana Ver ubicación,Clorinda Wilshaw,UF 14,$ 413.412,1,1,,28 m²,34 m²,31.993.921,05-11-2020,2020 1ºSem,75,-33.4567,-70.5978
59,Código: 202015510,Departamento,Departamento en Arriendo Ñuñoa - Metropolitana Ver ubicación,A PASOS DE METRO CHILE ESPAÑA,$ 430.000,"UF 14,56",1,1,,37 m²,41 m²,,11-04-2021,2020 1ºSem,70,-33.4551,-70.5959
60,,,,,,,,,,,,:avaluoFiscalTotalPesos:,:fechaPublicacionDespliegue:,,,-33.4494,-70.6226
61,Código: 202045303,Departamento,Departamento en Arriendo Ñuñoa - Metropolitana Ver ubicación,Julio Prado / Sucre / Barrio Italia,$ 420.000,"UF 14,22",1,1,,"36,4 m²","42,2 m²",,11-02-2021,2020 1ºSem,59,-33.4494,-70.6202
62,Código: 202053114,Departamento,Departamento en Arriendo Providencia - Metropolitana Ver ubicación,a una cuadra de Av. Bilbao,$ 780.000,"UF 26,41",2,2,,98 m²,98 m²,69.305.110,08-05-2021,2020 1ºSem,73,-33.4416,-70.622
63,,,,,"UF 13,95",$ 411.936,1,1,,"42,2 m²","52,2 m²",46.185.174,23-07-2020,2020 1ºSem,59,-33.4494,-70.6226
64,Código: 201201624,Casa,Casa en Arriendo Providencia - Metropolitana Ver ubicación,Fresia,$ 1.900.000,"UF 64,34",10,4,387 m²,237 m²,,176.747.174,01-10-2020,,,-33.4472,-70.6226
65,Código: 48725,Casa,Casa en Arriendo Providencia - Metropolitana Ver ubicación,José Manuel Infante/Julio Prado,UF 65,$ 1.919.416,9,4,384 m²,394 m²,1 m²,284.233.320,29-01-2021,2020 1ºSem,57,-33.4404,-70.6215
66,Código: 27675,Departamento,Departamento en Arriendo Providencia - Metropolitana Ver ubicación,Santa Victoria,$ 500.000,"UF 16,93",1,2,,58 m²,58 m²,66.038.022,19-05-2021,2020 1ºSem,54,-33.4461,-70.6279
67,Código: 2559630,Casa,Casa en Arriendo Providencia - Metropolitana Ver ubicación,"Casa Comercial, excelente ubicación en Providencia",UF 74,$ 2.185.181,,3,380 m²,220 m²,,,08-06-2021,2020 1ºSem,56,-33.4472,-70.6226
68,Código: 202051647,Departamento,Departamento en Arriendo Ñuñoa - Metropolitana Ver ubicación,Tegualda / Rengo,"UF 13,95",$ 411.936,1,1,,"42,2 m²","52,2 m²",46.185.174,23-07-2020,2020 1ºSem,59,-33.4494,-70.6226
69,Código: :codigo:,,:direccion: Ver ubicación,:titulo:,:precioUF:,,9,4,394 m²,335 m²,,284.233.320,20-10-2020,2020 1ºSem,57,-33.4407,-70.6217
70,Código: 27258,Departamento,Departamento en Arriendo Las Condes - Metropolitana Ver ubicación,Rosario Sur,$ 1.250.000,"UF 42,33",3,2,,140 m²,160 m²,214.605.813,11-05-2021,2020 1ºSem,81,-33.4118,-70.5681
71,Código: 278507,Departamento,Departamento en Arriendo Las Condes - Metropolitana Ver ubicación,Martin de Zamora/ Manquehue,$ 1.800.000,"UF 60,96",3,3,,140 m²,260 m²,118.854.217,08-04-2021,2020 1ºSem,73,-33.4148,-70.5626
72,,,,,,,,,,,,,,,,,
73,Código: 2131,Departamento,Departamento en Arriendo Las Condes - Metropolitana Ver ubicación,HERNANDO DE MAGALLANES / AV. CRISTOBAL COLON,$ 750.000,"UF 25,4",2,2,,68 m²,74 m²,,22-05-2021,2020 1ºSem,73,-33.4174,-70.5601
74,Código: 202071126,Departamento,Departamento en Arriendo Las Condes - Metropolitana Ver ubicación,Manquehue sector Apumanque,$ 540.000,"UF 18,29",1,1,,45 m²,55 m²,42.001.717,29-05-2021,2020 1ºSem,81,-33.4124,-70.5669
75,Código: 202002200,Departamento,Departamento en Arriendo Las Condes - Metropolitana Ver ubicación,Sector Apumanque,$ 580.000,"UF 19,64",2,2,,70 m²,70 m²,,18-05-2021,2020 1ºSem,81,-33.4115,-70.5668
76,,,,,,,,,,,,,,,,,
77,Código: 202000401,Departamento,Departamento en Arriendo Las Condes - Metropolitana Ver ubicación,MARTÍN DE ZAMORA CERCANO A MANQUEHUE,$ 1.800.000,"UF 60,96",3,3,,140 m²,260 m²,118.854.217,08-01-2019,2020 1ºSem,73,-33.4154,-70.5619
78,Código: 27154,Departamento,Departamento en Arriendo Las Condes - Metropolitana Ver ubicación,Martín de Zamora,$ 650.000,"UF 22,01",2,2,,73 m²,82 m²,66.771.963,07-05-2021,2020 1ºSem,73,-33.4159,-70.5683
79,Código: 202005690,Departamento,Departamento en Arriendo Las Condes - Metropolitana Ver ubicación,"privilegiada ubicación en las condes a pasos del metro y ,Apumanque .",$ 460.000,"UF 15,58",1,1,,36 m²,46 m²,40.657.639,10-04-2021,2020 1ºSem,81,-33.4114,-70.5672
80,Código: Add1088495,Departamento,Departamento en Arriendo Las Condes - Metropolitana Ver ubicación,"Amoblado, Av Colon, Domingo Bondi",$ 750.000,"UF 25,4",3,3,94 m²,82 m²,82 m²,73.991.859,19-06-2021,2020 1ºSem,73,-33.4189358,-70.5680462
81,Código: 202005725,Departamento,Departamento en Arriendo Las Condes - Metropolitana Ver ubicación,Hernando de Magallanes / Colón,$ 850.000,"UF 28,78",3,3,,120 m²,135 m²,,08-06-2021,2020 1ºSem,73,-33.4182,-70.5606
82,Código: 202053215,Departamento,Departamento en Arriendo Las Condes - Metropolitana Ver ubicación,Martín de Zamora/Hernando de Magallanes/Los Alpes.,$ 710.000,"UF 24,04",3,3,,87 m²,94 m²,106.238.375,07-06-2021,2020 1ºSem,73,-33.4154,-70.5607
83,Código: 2130,Departamento,Departamento en Arriendo Las Condes - Metropolitana Ver ubicación,HERNANDO DE MAGALLANES / AV. CRISTOBAL COLON,$ 750.000,"UF 25,4",2,2,,68 m²,74 m²,,22-05-2021,2020 1ºSem,73,-33.4174,-70.5601
84,Código: 202078823,Departamento,Departamento en Arriendo Providencia - Metropolitana Ver ubicación,Metro Inés de Suárez,$ 450.000,"UF 15,24",1,1,,40 m²,45 m²,35.894.421,20-06-2021,2020 1ºSem,80,-33.4348,-70.6103
85,Código: 51851,Departamento,Departamento en Arriendo Providencia - Metropolitana Ver ubicación,Manuel Montt/Antonio Varas,$ 850.000,"UF 28,78",3,2,,78 m²,,65.504.069,20-03-2021,2020 1ºSem,75,-33.4347,-70.6159
86,Código: 202075406,Departamento,Departamento en Arriendo Providencia - Metropolitana Ver ubicación,Marchant Pereira,$ 550.000,"UF 18,63",1,1,,48 m²,52 m²,49.600.424,08-03-2021,2020 1ºSem,92,-33.4326,-70.6119
87,Código: 201224723,Casa,Casa en Arriendo Providencia - Metropolitana Ver ubicación,General del Canto / Anibal Ariztía,$ 2.200.000,"UF 74,5",9,3,230 m²,223 m²,,145.485.740,07-12-2020,,,-33.4318,-70.6167
88,Código: 202053308,Departamento,Departamento en Arriendo Providencia - Metropolitana Ver ubicación,Regimiento Cazadores/Pocuro METRO INES DE SUAREZ,$ 770.000,"UF 26,08",3,2,,85 m²,95 m²,101.525.795,20-06-2021,2020 1ºSem,75,-33.4377,-70.6111
89,Código: 202373451,Departamento,Departamento en Arriendo Providencia - Metropolitana Ver ubicación,Manuel Montt/Providencia,$ 575.000,"UF 19,47",2,,,76 m²,76 m²,60.788.323,24-12-2020,2020 1ºSem,75,-33.4304,-70.6191
90,Código: 1577377,Departamento,Departamento en Arriendo Providencia - Metropolitana Ver ubicación,Mar del Plata,$ 630.000,"UF 21,33",2,2,,80 m²,80 m²,64.306.788,04-06-2021,2020 1ºSem,80,-33.4337,-70.6107
91,Código: 202053117,Departamento,Departamento en Arriendo Providencia - Metropolitana Ver ubicación,Espectacular Penthouse/Duplex. Amplia terraza en azotea. Eliodoro Yáñez/Pedro de Valdivia,$ 890.000,"UF 30,14",1,2,,82 m²,135 m²,109.724.364,11-05-2021,2020 1ºSem,92,-33.4321,-70.6127
92,,,Departamento en Arriendo Providencia - Metropolitana Ver ubicación,Valenzuela Castillo,$ 700.000,"UF 23,71",3,2,,74 m²,78 m²,65.504.069,14-05-2021,2020 1ºSem,75,-33.4349,-70.6162
93,Código: 1028063019-57,Departamento,Departamento en Arriendo Providencia - Metropolitana Ver ubicación,REGIMIENTO CAZADORES,$ 780.000,"UF 26,41",3,2,,96 m²,96 m²,101.525.795,18-05-2021,2020 1ºSem,75,-33.4375,-70.6113
94,Código: 1577505,Departamento,Departamento en Arriendo Providencia - Metropolitana Ver ubicación,Moderno y completo departamento / Metro I. de Suárez,$ 780.000,"UF 26,41",3,2,,87 m²,97 m²,101.525.795,20-05-2021,2020 1ºSem,75,-33.4377,-70.6111
95,Código: 202053214,Departamento,Departamento en Arriendo Providencia - Metropolitana Ver ubicación,Barros Borgoño / Manuel Montt,$ 730.000,"UF 24,72",2,2,,"77,2 m²","90,1 m²",101.162.510,05-06-2021,2020 1ºSem,75,-33.432,-70.6174
96,Código: 202041857,Departamento,Departamento en Arriendo Providencia - Metropolitana Ver ubicación,Eleodoro Yáñez / Antonio Varas,"UF 14,3",$ 422.271,1,1,,40 m²,49 m²,28.493.102,08-04-2021,2020 1ºSem,92,-33.4318,-70.6146
97,Código: 6987,Departamento,Departamento en Arriendo Providencia - Metropolitana Ver ubicación,ELIODORO YAÑEZ / FEDERICO FROEBEL,$ 550.000,"UF 18,63",1,1,,36 m²,40 m²,,30-06-2021,2020 1ºSem,92,-33.4326,-70.6119
98,Código: 6983,Departamento,Departamento en Arriendo Santiago - Metropolitana Ver ubicación,HUERFANOS / AMUNÁTEGUI,$ 470.000,"UF 15,92",1,1,,50 m²,50 m²,47.478.558,30-06-2021,2020 1ºSem,52,-33.4404,-70.6566
99,Código: 202372426,Departamento,Departamento en Arriendo Santiago - Metropolitana Ver ubicación,Metro La Moneda-Paseo Bulnes,$ 270.000,"UF 9,14",1,1,,28 m²,28 m²,26.175.978,02-04-2021,2020 1ºSem,48,-33.4497,-70.6532
100,Código: 46,Departamento,Departamento en Arriendo Santiago - Metropolitana Ver ubicación,METRO SANTA ANA,$ 380.000,"UF 12,87",2,2,,65 m²,65 m²,,28-04-2021,2020 1ºSem,52,-33.4403,-70.6568
101,Código: 52792,Departamento,Departamento en Arriendo Santiago - Metropolitana Ver ubicación,Av Manuel Rodríguez y Tucapel Jiménez/Moneda - Santiago Centro,$ 280.000,"UF 9,48",1,1,,40 m²,,32.350.135,14-05-2021,2020 1ºSem,52,-33.4427,-70.6595
102,Código: 202265354,Departamento,Departamento en Arriendo Santiago - Metropolitana Ver ubicación,Eleuterio Ramírez con San Diego,$ 240.000,"UF 8,13",1,1,,34 m²,36 m²,29.849.302,12-05-2021,2020 1ºSem,55,-33.4493,-70.6504
103,Código: 202375399,Departamento,Departamento en Arriendo Santiago - Metropolitana Ver ubicación,Lord Cochrane con Tarapacá,$ 230.000,"UF 7,79",1,1,,34 m²,38 m²,36.141.812,10-04-2021,2020 1ºSem,51,-33.4484,-70.6554
104,Código: 202375774,Departamento,Departamento en Arriendo Santiago - Metropolitana Ver ubicación,Metro La Moneda,$ 350.000,"UF 11,85",2,2,,75 m²,75 m²,44.365.002,06-05-2021,2020 1ºSem,51,-33.4472,-70.654
105,,,,:titulo:,:precioUF:,:precioDespliegue:,:dormitoriosText:,:,:superficieTerreno: m²,:metrosUtiles: m²,:metrosConstruidos: m²,,15-06-2021,2020 1ºSem,52,-33.4432,-70.6586
106,Código: 202041652,Departamento,Departamento en Arriendo Santiago - Metropolitana Ver ubicación,Moneda / Tucapel Jiménez,$ 345.000,"UF 11,68",2,2,,48 m²,50 m²,52.632.876,09-01-2021,2020 1ºSem,52,-33.4427,-70.6592
107,Código: 1028060068-1,Departamento,Departamento en Arriendo Santiago - Metropolitana Ver ubicación,Oportunidad cerca del Metro la Moneda,$ 260.000,"UF 8,8",1,1,,33 m²,33 m²,23.724.988,25-05-2021,2020 1ºSem,51,-33.4479,-70.6539
108,,Departamento,Departamento en Arriendo Santiago - Metropolitana Ver ubicación,Metro Santa Ana,$ 280.000,"UF 9,48",1,1,,48 m²,48 m²,,06-05-2021,2020 1ºSem,48,-33.4406,-70.6549
109,,Departamento,Departamento en Arriendo Santiago - Metropolitana Ver ubicación,HUERFANOS / AMUNÁTEGUI,$ 390.000,"UF 13,21",1,1,,50 m²,50 m²,52.151.736,17-06-2021,2020 1ºSem,52,-33.4404,-70.6566
110,Código: 1028068032-44,Departamento,Departamento en Arriendo Santiago - Metropolitana Ver ubicación,Baja de precio! Céntrico muy conectado!,$ 275.000,"UF 9,31",1,1,,32 m²,34 m²,34.325.103,24-06-2021,2020 1ºSem,51,-33.4493,-70.6546
111,Código: 20444,Departamento,Departamento en Arriendo Santiago - Metropolitana Ver ubicación,Av Lord Cochrane / Tarapacá,$ 400.000,"UF 13,55",1,1,,26 m²,26 m²,9.715.452.544,12-03-2021,2020 1ºSem,51,-33.4481,-70.6549
112,Código: 202028151,Departamento,Departamento en Arriendo Santiago - Metropolitana Ver ubicación,Huérfanos / San Martín,$ 260.000,"UF 8,8",1,1,,30 m²,30 m²,27.519.182,24-07-2020,2020 1ºSem,52,-33.4409,-70.6576
113,Código: 202373617,Departamento,Departamento en Arriendo Santiago - Metropolitana Ver ubicación,Padre Miguel de Olivares con San Ignacio,$ 250.000,"UF 8,47",1,1,,35 m²,36 m²,32.643.830,17-03-2021,2020 1ºSem,51,-33.4492,-70.6558
114,Código: 201074558,Casa,Casa en Arriendo Santiago - Metropolitana Ver ubicación,MONEDA SAN MARTIN (Piso 1 arriendo UF 29) (Piso 2 arriendo UF 27),UF 56,$ 1.653.650,10,5,182 m²,242 m²,,185.084.125,26-03-2021,,,-33.4428,-70.6568
115,Código: 202143924,Departamento,Departamento en Arriendo Santiago - Metropolitana Ver ubicación,Tarapacá con Nataniel Cox,$ 300.000,"UF 10,16",1,1,,33 m²,33 m²,23.724.988,19-05-2021,2020 1ºSem,51,-33.448,-70.6539
116,,,,Av Lord Cochrane / Tarapacá,$ 650.000,"UF 22,01",2,2,,64 m²,64 m²,9.715.452.544,12-03-2021,2020 1ºSem,51,-33.448,-70.6549
117,Código: 202265355,Departamento,Departamento en Arriendo Santiago - Metropolitana Ver ubicación,Eleuterio Ramírez con San Diego,$ 240.000,"UF 8,13",1,1,,34 m²,36 m²,29.849.302,12-05-2021,2020 1ºSem,55,-33.4493,-70.6504
118,,,,,$ 230.000,"UF 7,79",1,1,,30 m²,32 m²,21.040.491,11-02-2021,2020 1ºSem,51,-33.4486,-70.6544
119,Código: 202035600,Departamento,Departamento en Arriendo Santiago - Metropolitana Ver ubicación,Nataniel cox / Tarapaca.,$ 430.000,"UF 14,56",2,1,,58 m²,58 m²,47.374.587,18-12-2020,2020 1ºSem,51,-33.4495,-70.6561
120,Código: 202052738,Departamento,Departamento en Arriendo Santiago - Metropolitana Ver ubicación,SAN DIEGO CON TARAPACA,"UF 8,44",$ 249.228,1,1,,36 m²,41 m²,19.948.442,05-03-2021,2020 1ºSem,48,-33.4484,-70.651
121,Código: 202181791,Departamento,Departamento en Arriendo Santiago - Metropolitana Ver ubicación,Lord Cochrane,$ 350.000,"UF 11,85",2,1,,38 m²,42 m²,29.621.650,11-05-2021,2020 1ºSem,51,-33.4473,-70.6549
122,Código: 202376568,Departamento,Departamento en Arriendo Santiago - Metropolitana Ver ubicación,Lord Cochranne / Tarapacá,$ 229.000,"UF 7,75",1,1,,36 m²,36 m²,22.635.698,29-06-2021,2020 1ºSem,51,-33.4473,-70.6546
123,Código: 202078070,Departamento,Departamento en Arriendo Santiago - Metropolitana Ver ubicación,Lord Cochrane / Metro Moneda,$ 240.000,"UF 8,13",1,1,,28 m²,28 m²,21.833.581,07-04-2021,2020 1ºSem,51,-33.4473,-70.6546
124,Código: 202045350,Departamento,Departamento en Arriendo Santiago - Metropolitana Ver ubicación,Miguel de Olivares / Lord Cochrane,$ 500.000,"UF 16,93",2,2,,60 m²,66 m²,1.631.237,02-03-2021,2020 1ºSem,51,-33.4493,-70.6557
125,,,:direccion: Ver ubicación,Av Lord Cochrane / Tarapacá,$ 349.000,"UF 11,82",1,1,,26 m²,26 m²,9.715.452.544,27-04-2021,2020 1ºSem,51,-33.4481,-70.6549
126,Código: 1575213,Departamento,Departamento en Arriendo Providencia - Metropolitana Ver ubicación,Suecia/ Plaza La Alcaldesa,$ 580.000,"UF 19,64",2,1,,55 m²,61 m²,37.335.655,22-02-2021,2020 1ºSem,75,-33.4379,-70.6022
127,Código: 1578134,Departamento,Departamento en Arriendo Providencia - Metropolitana Ver ubicación,Acogedor Departamento / Darío Urzúa,$ 650.000,"UF 22,01",2,2,,65 m²,71 m²,66.626.507,11-06-2021,2020 1ºSem,80,-33.4304,-70.6078
128,Código: 46400,Departamento,Departamento en Arriendo Providencia - Metropolitana Ver ubicación,Mar del Plata/Pedro de Valdivia,$ 450.000,"UF 15,24",1,1,,37 m²,,36.946.639,20-05-2021,2020 1ºSem,80,-33.4333,-70.6099
129,Código: 1028060021-186,Departamento,Departamento en Arriendo Providencia - Metropolitana Ver ubicación,AV. POCURO/ METRO INES DE SUAREZ,$ 900.000,"UF 30,48",2,2,,84 m²,88 m²,98.383.609,30-06-2021,2020 1ºSem,80,-33.4348,-70.604
130,,,,,,,,,,,,:avaluoFiscalTotalPesos:,27-04-2021,,,-33.4314,-70.6093
131,Código: 202015424,Departamento,Departamento en Arriendo Providencia - Metropolitana Ver ubicación,Suecia / Av. Fco . Bilbao,$ 500.000,"UF 16,93",1,2,,54 m²,54 m²,70.775.500,06-05-2021,2020 1ºSem,80,-33.4359,-70.6023
132,Código: 1576871,Departamento,Departamento en Arriendo Providencia - Metropolitana Ver ubicación,"Impecable, Suecia Amoblado",$ 2.000.000,"UF 67,73",4,3,,140 m²,189 m²,177.065.521,22-04-2021,2020 1ºSem,75,-33.4386,-70.6022
133,Código: 202044610,Departamento,Departamento en Arriendo Providencia - Metropolitana Ver ubicación,Suecia / Bilbao,$ 699.900,"UF 23,7",3,2,,104 m²,110 m²,87.795.355,08-07-2020,2020 1ºSem,75,-33.4389,-70.6025
134,,,,,,,,,,,,,,,,,
135,Código: 202706943,Departamento,Departamento en Arriendo Providencia - Metropolitana Ver ubicación,Pocuro /Ricardo Lyon,$ 480.000,"UF 16,25",1,1,,47 m²,47 m²,40.821.776,06-05-2021,2020 1ºSem,80,-33.43495949,-70.60346618
136,Código: 1028071027-16,Departamento,Departamento en Arriendo Providencia - Metropolitana Ver ubicación,California,$ 590.000,"UF 19,98",2,2,,50 m²,50 m²,48.198.442,24-06-2021,2020 1ºSem,80,-33.4363,-70.6035
137,Código: 202133039,Departamento,Departamento en Arriendo Providencia - Metropolitana Ver ubicación,Los Leones con Pocuro,$ 800.000,"UF 27,09",2,2,,76 m²,93 m²,,13-05-2021,2020 1ºSem,80,-33.4353,-70.6016
138,Código: 202077025,Departamento,Departamento en Arriendo Providencia - Metropolitana Ver ubicación,Municipalidad de Providencia,$ 600.000,"UF 20,32",2,2,,65 m²,71 m²,66.626.507,03-01-2021,2020 1ºSem,80,-33.4304,-70.6078
139,,,,,,,,,,,,,,,,-33.43075065,-70.60013734
140,Código: 27805,Departamento,Departamento en Arriendo Providencia - Metropolitana Ver ubicación,Traiguen,$ 400.000,"UF 13,55",1,1,,45 m²,45 m²,32.792.180,22-05-2021,2020 1ºSem,80,-33.4314,-70.6093
141,Código: 202707322,Departamento,Departamento en Arriendo Providencia - Metropolitana Ver ubicación,Pocuro / Los Leones,UF 18,$ 531.530,2,2,,68 m²,73 m²,83.286.839,16-03-2021,2020 1ºSem,75,-33.4346,-70.601
142,,,,,:precioUF:,:precioDespliegue:,:dormitoriosText:,:,:superficieTerreno: m²,:metrosUtiles: m²,:metrosConstruidos: m²,:avaluoFiscalTotalPesos:,:fechaPublicacionDespliegue:,,,-33.4321,-70.6012
143,Código: :codigo:,,:direccion: Ver ubicación,:titulo:,:precioUF:,:precioDespliegue:,:dormitoriosText:,:,:superficieTerreno: m²,:metrosUtiles: m²,:metrosConstruidos: m²,:avaluoFiscalTotalPesos:,:fechaPublicacionDespliegue:,2020 1ºSem,75,-33.43,-70.6026
144,,,,,,,,:,:superficieTerreno: m²,:metrosUtiles: m²,:metrosConstruidos: m²,:avaluoFiscalTotalPesos:,:fechaPublicacionDespliegue:,,,-33.4345969,-70.6061106
145,Código: 202712121,Departamento,Departamento en Arriendo Providencia - Metropolitana Ver ubicación,Dario Urzua/Av. Ricardo Lyon,$ 600.000,"UF 20,32",2,2,,"64,9 m²","70,6 m²",66.626.507,18-02-2021,2020 1ºSem,80,-33.4306,-70.6085
146,Código: 52755,Departamento,Departamento en Arriendo Independencia - Metropolitana Ver ubicación,Metro Plaza Chacabuco/Av Independencia,$ 350.000,"UF 11,85",2,2,,64 m²,,29.530.292,12-05-2021,,,-33.40608487,-70.66349809
147,Código: 202375483,Departamento,Departamento en Arriendo Independencia - Metropolitana Ver ubicación,Hipódromo Chile con Freirina,$ 270.000,"UF 9,14",2,1,,47 m²,50 m²,35.988.940,18-04-2021,2020 1ºSem,46,-33.4072,-70.6643
148,Código: 28897,Departamento,Departamento en Arriendo Las Condes - Metropolitana Ver ubicación,Coronel Pereira,$ 780.000,"UF 26,41",4,3,,100 m²,105 m²,92.048.893,23-06-2021,2020 1ºSem,81,-33.4134,-70.5787
149,Código: 202008167,Departamento,Departamento en Arriendo Las Condes - Metropolitana Ver ubicación,Jorge VI con Apoquindo,$ 410.000,"UF 13,88",1,1,,32 m²,46 m²,29.219.305,27-06-2021,2020 1ºSem,81,-33.4115,-70.5736
150,Código: 202075251,Departamento,Departamento en Arriendo Las Condes - Metropolitana Ver ubicación,La Gloria / DEPARTAMENTO NUEVO,$ 629.300,"UF 21,31",1,1,,41 m²,52 m²,109.272.149,26-08-2020,2020 1ºSem,81,-33.4104,-70.5763
151,Código: 202374938,Departamento,Departamento en Arriendo Las Condes - Metropolitana Ver ubicación,Puerta Del Sol,$ 720.000,"UF 24,38",2,2,,70 m²,75 m²,103.543.389,13-03-2021,2020 1ºSem,81,-33.4128,-70.5781
152,Código: 202075272,Departamento,Departamento en Arriendo Las Condes - Metropolitana Ver ubicación,La Gloria - DEPARTAMENTO NUEVO,$ 444.700,"UF 15,06",1,1,,37 m²,37 m²,46.353.774,02-09-2020,2020 1ºSem,81,-33.4104,-70.5763
153,Código: :codigo:,,:direccion: Ver ubicación,:titulo:,:precioUF:,:precioDespliegue:,:dormitoriosText:,:,:superficieTerreno: m²,:metrosUtiles: m²,:metrosConstruidos: m²,:avaluoFiscalTotalPesos:,:fechaPublicacionDespliegue:,2020 1ºSem,81,-33.4128,-70.5782
154,Código: 1028061013-266,Departamento,Departamento en Arriendo Las Condes - Metropolitana Ver ubicación,La Castelana Sur,$ 850.000,"UF 28,78",3,2,,114 m²,114 m²,87.321.640,23-06-2021,2020 1ºSem,81,-33.4124,-70.5766
155,,,,,,,1,1,,42 m²,53 m²,46.353.774,18-02-2021,,,-33.4104,-70.5763
156,,,,,,,,,,,,,,,,,
157,Código: 202075295,Departamento,Departamento en Arriendo Las Condes - Metropolitana Ver ubicación,La Gloria / DEPARTAMENTO NUEVO,$ 521.200,"UF 17,65",1,1,,42 m²,42 m²,52.647.551,02-09-2020,2020 1ºSem,81,-33.4104,-70.5763
158,Código: 202015346,Departamento,Departamento en Arriendo Las Condes - Metropolitana Ver ubicación,Puerta del Sol. Metro Los Militares,UF 16,$ 472.471,1,1,,35 m²,35 m²,52.230.204,28-04-2021,2020 1ºSem,81,-33.4128,-70.5781
159,Código: 53239,Departamento,Departamento en Arriendo Las Condes - Metropolitana Ver ubicación,Nevería/Coimbra,$ 900.000,"UF 30,48",3,3,,120 m²,,,15-06-2021,2020 1ºSem,81,-33.4122,-70.5748
160,Código: 202000904,Departamento,Departamento en Arriendo Las Condes - Metropolitana Ver ubicación,La Castellana Sur / Estadio Español.,$ 1.400.000,"UF 47,41",4,3,,160 m²,160 m²,,22-05-2021,2020 1ºSem,81,-33.4129,-70.5762
161,,,,,,,,,,,,,,,,,
162,Código: 202075302,Departamento,Departamento en Arriendo Las Condes - Metropolitana Ver ubicación,La GLoria - AMOBLADO,$ 803.700,"UF 27,22",1,1,,56 m²,88 m²,5.022.947,18-02-2021,2020 1ºSem,81,-33.4104,-70.5763
163,Código: 152,Departamento,Departamento en Arriendo Las Condes - Metropolitana Ver ubicación,Luis Zegers // Apoquindo (152),$ 900.000,"UF 30,48",,2,,110 m²,,93.794.650,17-06-2021,2020 1ºSem,81,-33.4114,-70.5731
164,Código: 202078425,Departamento,Departamento en Arriendo Las Condes - Metropolitana Ver ubicación,MARTIN DE ZAMORA / COLON / 1 DE JULIO (cod:MJN),$ 800.000,"UF 27,09",3,2,,89 m²,97 m²,86.248.009,19-05-2021,2020 1ºSem,73,-33.4188,-70.5718
165,Código: 202201658,Departamento,Departamento en Arriendo Las Condes - Metropolitana Ver ubicación,Metro Manquehue,$ 1.500.000,"UF 50,8",3,2,,155 m²,170 m²,177.568.347,01-10-2020,2020 1ºSem,77,-33.4006,-70.5651
166,Código: 22895,Casa,Casa en Arriendo Las Condes - Metropolitana Ver ubicación,Nuestra Señora del Rosario,$ 1.400.000,"UF 47,41",4,3,192 m²,98 m²,,84.465.479,31-01-2021,2020 1ºSem,83,-33.4047,-70.5611
167,Código: 202711824,Departamento,Departamento en Arriendo Las Condes - Metropolitana Ver ubicación,Metro Manquehue,$ 450.000,"UF 15,24",,,,42 m²,48 m²,68.730.183,12-01-2021,2020 1ºSem,91,-33.4085,-70.5658
168,Código: 202374627,Departamento,Departamento en Arriendo Las Condes - Metropolitana Ver ubicación,Metro Manquehue,$ 420.000,"UF 14,22",1,1,,31 m²,40 m²,46.186.749,24-02-2021,2020 1ºSem,91,-33.4071,-70.5667
169,Código: 202053226,Departamento,Departamento en Arriendo Las Condes - Metropolitana Ver ubicación,Carlos XII / Noruega / Metro Manquehue,$ 450.000,"UF 15,24",1,1,,40 m²,50 m²,47.336.593,08-06-2021,2020 1ºSem,91,-33.4065,-70.5656
170,Código: 242114,Departamento,Departamento en Arriendo Las Condes - Metropolitana Ver ubicación,Manquehue Norte/Av. Kennedy,"UF 29,7",$ 877.025,2,2,,70 m²,80 m²,117.202.869,09-02-2021,2020 1ºSem,93,-33.4001,-70.5699
171,Código: 202077516,Departamento,Departamento en Arriendo Las Condes - Metropolitana Ver ubicación,Manquehue/Apoquindo,$ 400.000,"UF 13,55",1,1,,38 m²,38 m²,42.004.004,19-02-2021,2020 1ºSem,91,-33.4075,-70.5674
172,Código: 202053306,Departamento,Departamento en Arriendo Las Condes - Metropolitana Ver ubicación,Los Militares - Bergen,$ 1.200.000,"UF 40,64",4,3,,120 m²,120 m²,130.643.275,18-06-2021,2020 1ºSem,91,-33.4034,-70.5639
173,Código: 202006370,Departamento,Departamento en Arriendo Las Condes - Metropolitana Ver ubicación,(AH) Las Clarisas con Apoquindo,$ 530.000,"UF 17,95",1,1,,50 m²,52 m²,,31-05-2021,2020 1ºSem,109,-33.4057,-70.56
174,Código: 202000321,Departamento,Departamento en Arriendo Las Condes - Metropolitana Ver ubicación,Av Presidente Kennedy,$ 1.400.000,"UF 47,41",4,4,,1 m²,1 m²,,19-04-2021,,,-33.4,-70.5692
175,Código: 202053261,Departamento,Departamento en Arriendo Providencia - Metropolitana Ver ubicación,El Bosque / Dinamarca (REMODELADO),$ 680.000,"UF 23,03",3,2,,80 m²,87 m²,56.347.877,17-06-2021,2020 1ºSem,75,-33.4394,-70.5897
176,Código: 201376534,Casa,Casa en Arriendo Providencia - Metropolitana Ver ubicación,Jorge Matte Gormaz / Diego De Almagro,UF 140,$ 4.134.127,13,1,738 m²,670 m²,,288.037.972,24-06-2021,2020 1ºSem,73,-33.4387,-70.588
177,Código: Add984054,Departamento,Departamento en Arriendo Ñuñoa - Metropolitana Ver ubicación,Tobalaba,$ 750.000,"UF 25,4",2,2,79 m²,73 m²,73 m²,,18-12-2020,2020 1ºSem,81,-33.4342634,-70.582055
178,Código: 202375003,Departamento,Departamento en Arriendo Providencia - Metropolitana Ver ubicación,Metro Bilbao,$ 470.000,"UF 15,92",1,1,,40 m²,40 m²,57.343.124,16-03-2021,2020 1ºSem,75,-33.4345,-70.5848
179,Código: 1028018296-3,Departamento,Departamento en Arriendo Las Condes - Metropolitana Ver ubicación,Hermanos Cabot,$ 1.900.000,"UF 64,34",4,6,,258 m²,258 m²,326.072.592,14-04-2021,2020 1ºSem,93,-33.3959,-70.5634
180,Código: EB-HT2043,Departamento,Departamento en Arriendo Las Condes - Metropolitana Ver ubicación,Colegio Alemán.,"UF 40,4",$ 1.192.990,3,3,,140 m²,,,17-06-2021,2020 1ºSem,93,-33.399,-70.5686
181,Código: :codigo:,,:direccion: Ver ubicación,:titulo:,:precioUF:,:precioDespliegue:,:dormitoriosText:,:,:superficieTerreno: m²,:metrosUtiles: m²,:metrosConstruidos: m²,:avaluoFiscalTotalPesos:,:fechaPublicacionDespliegue:,,,-33.3988,-70.5667
182,Código: 202064337,Departamento,Departamento en Arriendo Las Condes - Metropolitana Ver ubicación,Gerónimo de Alderete,UF 150,$ 4.429.422,4,5,,360 m²,400 m²,365.796.805,12-06-2019,2020 1ºSem,93,-33.3969,-70.5687
183,,,,,,,,,,,,,,,,,
184,Código: 203167,Casa,Casa en Arriendo Vitacura - Metropolitana Ver ubicación,Las Hualtatas / G. de Alderete,UF 115,$ 3.395.890,5,3,516 m²,212 m²,,237.929.493,09-02-2021,2020 1ºSem,108,-33.3922,-70.5626
185,Código: 1578261,Departamento,Departamento en Arriendo Las Condes - Metropolitana Ver ubicación,Puerto de Caldera / Geronimo de Alderete,"UF 40,47",$ 1.195.058,3,3,,120 m²,140 m²,183.003.033,16-06-2021,2020 1ºSem,93,-33.3969,-70.5628
186,Código: 202134653,Departamento,Departamento en Arriendo Vitacura - Metropolitana Ver ubicación,Dúplex / con Jardín,UF 42,$ 1.240.238,3,4,,140 m²,200 m²,,17-06-2020,2020 1ºSem,96,-33.394,-70.5634
187,Código: 29188,Departamento,Departamento en Arriendo Las Condes - Metropolitana Ver ubicación,Capitán Crosbie,$ 890.000,"UF 30,14",2,2,,100 m²,110 m²,195.042.124,30-06-2021,2020 1ºSem,93,-33.3961,-70.5604
188,Código: 23286,Departamento,Departamento en Arriendo Las Condes - Metropolitana Ver ubicación,BRASILIA,$ 900.000,"UF 30,48",1,3,,130 m²,130 m²,116.922.993,09-02-2021,2020 1ºSem,93,-33.3975,-70.566
189,Código: 1028076006-220,Departamento,Departamento en Arriendo Las Condes - Metropolitana Ver ubicación,"Av. Kennedy, Gerónimo de Alderete",$ 700.000,"UF 23,71",2,2,,75 m²,75 m²,85.745.320,27-03-2021,2020 1ºSem,93,-33.3969,-70.5687
190,Código: 2038,Departamento,Departamento en Arriendo Vitacura - Metropolitana Ver ubicación,CAMOENS 6470 / VITACURA,$ 1.350.000,"UF 45,72",2,3,,153 m²,153 m²,,26-05-2021,2020 1ºSem,96,-33.3908,-70.5684
191,Código: 28445,Departamento,Departamento en Arriendo Las Condes - Metropolitana Ver ubicación,av kennedy,UF 27,$ 797.295,2,2,,85 m²,95 m²,54.833.927,10-06-2021,2020 1ºSem,93,-33.398,-70.5693
192,Código: 202052941,Departamento,Departamento en Arriendo Las Condes - Metropolitana Ver ubicación,Kennedy lateral / Oscar Tenhann,$ 650.000,"UF 22,01",2,2,,63 m²,69 m²,75.860.772,12-03-2021,2020 1ºSem,93,-33.3966,-70.5654
193,Código: 202272035,Departamento,Departamento en Arriendo Santiago - Metropolitana Ver ubicación,10 de Julio Av Matta,$ 280.000,"UF 9,48",2,1,,42 m²,42 m²,15.722.821,03-06-2021,2020 1ºSem,49,-33.4548,-70.6381
194,Código: 202374239,Departamento,Departamento en Arriendo Santiago - Metropolitana Ver ubicación,Metro Santa Isabel,$ 340.000,"UF 11,51",2,1,,40 m²,44 m²,41.730.717,03-02-2021,2020 1ºSem,49,-33.4507,-70.6321
195,Código: 1028036048-62,Departamento,Departamento en Arriendo Santiago - Metropolitana Ver ubicación,Se arrienda departamento cerca de todo,$ 290.000,"UF 9,82",1,1,,33 m²,36 m²,24.381.050,01-07-2021,2020 1ºSem,49,-33.4534,-70.632
196,Código: 1028018010-369,Departamento,Departamento en Arriendo Ñuñoa - Metropolitana Ver ubicación,Vicuña Mackenna,$ 380.000,"UF 12,87",1,1,,34 m²,40 m²,1.054.003,09-06-2021,2020 1ºSem,59,-33.4501,-70.6311
197,Código: 202078091,Departamento,Departamento en Arriendo Santiago - Metropolitana Ver ubicación,Portugal / Copiapo,$ 450.000,"UF 15,24",2,2,,"58,9 m²","61,9 m²",61.335.986,10-04-2021,2020 1ºSem,49,-33.4527,-70.6338
198,Código: 51941,Casa,Casa en Arriendo Santiago - Metropolitana Ver ubicación,Vicuña Mackenna/10 de Juliio,$ 1.800.000,"UF 60,96",6,4,164 m²,150 m²,,117.116.114,23-03-2021,,,-33.4501,-70.6347
199,Código: 1028061029-48,Departamento,Departamento en Arriendo Santiago - Metropolitana Ver ubicación,Argomedo,$ 330.000,"UF 11,18",2,2,,52 m²,54 m²,37.852.446,30-06-2021,2020 1ºSem,55,-33.45,-70.6357
200,Código: 202053281,Departamento,Departamento en Arriendo Santiago - Metropolitana Ver ubicación,Fray Camilo Henríquez / Líder Express,$ 400.000,"UF 13,55",2,2,,"43,2 m²","49,6 m²",42.597.152,24-06-2021,2020 1ºSem,49,-33.4503,-70.6336
201,Código: 202045316,Departamento,Departamento en Arriendo Santiago - Metropolitana Ver ubicación,PORTUGAL / COQUIMBO,$ 300.000,"UF 10,16",1,1,,38 m²,40 m²,26.863.457,17-02-2021,2020 1ºSem,49,-33.4546,-70.6339
202,Código: 1028057048-60,Casa,Casa en Arriendo Vitacura - Metropolitana Ver ubicación,Antilhue,$ 4.000.000,"UF 135,46",7,8,1.090 m²,480 m²,,432.559.557,22-05-2021,2020 1ºSem,86,-33.3723,-70.5753
203,Código: 201078213,Casa,Casa en Arriendo Vitacura - Metropolitana Ver ubicación,Santa María de Manquehue / Costanera Norte,UF 200,$ 5.905.896,7,8,1.212 m²,"519,8 m²",,678.544.671,28-04-2021,2020 1ºSem,100,-33.376,-70.576
204,Código: 201064276,Casa,Casa en Arriendo Vitacura - Metropolitana Ver ubicación,Santa María de Manquehue,UF 140,$ 4.134.127,6,5,1.000 m²,420 m²,,432.559.557,01-04-2021,2020 1ºSem,86,-33.3729,-70.5742
205,Código: 202161919,Departamento,Departamento en Arriendo Vitacura - Metropolitana Ver ubicación,Sta Maria de Manquehue,"UF 81,46",$ 2.405.471,3,2,,186 m²,686 m²,238.565.584,30-04-2021,2020 1ºSem,103,-33.3761,-70.577
206,Código: 203116,Casa,Casa en Arriendo Vitacura - Metropolitana Ver ubicación,Antonio Rabat/ Carolina Rabat,UF 140,$ 4.134.127,3,6,1.009 m²,480 m²,,432.559.557,09-02-2021,2020 1ºSem,86,-33.3725,-70.577
207,Código: 202161673,Departamento,Departamento en Arriendo Vitacura - Metropolitana Ver ubicación,Vía Blanca - Luis Pasteur,UF 70,$ 2.067.063,3,3,,245 m²,274 m²,288.465.611,29-06-2021,,,-33.3736,-70.5709
208,Código: 202373924,Departamento,Departamento en Arriendo Santiago - Metropolitana Ver ubicación,Metro Puente Cal y Canto,$ 250.000,"UF 8,47",1,1,,30 m²,31 m²,26.026.541,25-01-2021,2020 1ºSem,52,-33.4342,-70.6576
209,Código: 202078140,Departamento,Departamento en Arriendo Santiago - Metropolitana Ver ubicación,Compañia de Jesus con San Martin,$ 280.000,"UF 9,48",1,1,,36 m²,39 m²,26.635.027,18-04-2021,2020 1ºSem,52,-33.4389,-70.658
210,Código: 28687,Departamento,Departamento en Arriendo Santiago - Metropolitana Ver ubicación,Compañia,$ 510.000,"UF 17,27",3,2,,82 m²,82 m²,42.986.434,16-06-2021,2020 1ºSem,52,-33.4388,-70.659
211,Código: 202375016,Departamento,Departamento en Arriendo Santiago - Metropolitana Ver ubicación,San Pablo con Manuel Rodriguez,$ 270.000,"UF 9,14",1,1,,32 m²,30 m²,35.456.259,16-03-2021,2020 1ºSem,52,-33.4343,-70.6593
212,Código: 202350618,Departamento,Departamento en Arriendo Santiago - Metropolitana Ver ubicación,Santiago,$ 295.000,"UF 9,99",2,1,,48 m²,48 m²,34.434.136,08-04-2021,2020 1ºSem,46,-33.4382,-70.6599
213,Código: 1028018010-363,Departamento,Departamento en Arriendo Santiago - Metropolitana Ver ubicación,General Mackenna,$ 470.000,"UF 15,92",2,2,,64 m²,64 m²,,15-05-2021,2020 1ºSem,52,-33.4332,-70.6597
214,Código: 202376453,Departamento,Departamento en Arriendo Santiago - Metropolitana Ver ubicación,San Diego,$ 400.000,"UF 13,55",2,2,,52 m²,54 m²,42.473.519,20-06-2021,2020 1ºSem,52,-33.4342,-70.6576
215,Código: 202008150,Departamento,Departamento en Arriendo Santiago - Metropolitana Ver ubicación,Rosas / Metro Santa Ana,$ 480.000,"UF 16,25",2,2,,65 m²,68 m²,58.572.998,24-06-2021,2020 1ºSem,52,-33.4356,-70.6564
216,Código: 202375979,Departamento,Departamento en Arriendo Santiago - Metropolitana Ver ubicación,Metro Puente Cal y Canto,$ 300.000,"UF 10,16",1,1,,42 m²,42 m²,25.428.401,24-05-2021,2020 1ºSem,52,-33.4322,-70.6584
217,Código: 1028071032-1,Departamento,Departamento en Arriendo Santiago - Metropolitana Ver ubicación,Amunategui,$ 270.000,"UF 9,14",1,1,,35 m²,35 m²,,05-03-2021,2020 1ºSem,52,-33.4366,-70.6572
218,Código: 22136,Departamento,Departamento en Arriendo Santiago - Metropolitana Ver ubicación,Santo Domingo,$ 480.000,"UF 16,25",2,2,,60 m²,65 m²,60.123.695,19-01-2021,2020 1ºSem,52,-33.4372,-70.6564
219,Código: 25495,Departamento,Departamento en Arriendo Santiago - Metropolitana Ver ubicación,Huerfanos,$ 300.000,"UF 10,16",1,1,,23 m²,23 m²,23.682.447,31-03-2021,2020 1ºSem,52,-33.4397,-70.6567
220,,,,,,:precioDespliegue:,2,2,,45 m²,48 m²,48.966.241,05-11-2019,,,-33.4368,-70.6548
221,Código: 1028024065-733,Departamento,Departamento en Arriendo Santiago - Metropolitana Ver ubicación,Amunategui,$ 280.000,"UF 9,48",1,1,,33 m²,33 m²,1.069.067.269,25-06-2021,2020 1ºSem,52,-33.4341,-70.6576
222,,,,,:precioUF:,:precioDespliegue:,:dormitoriosText:,:,:superficieTerreno: m²,:metrosUtiles: m²,:metrosConstruidos: m²,:avaluoFiscalTotalPesos:,:fechaPublicacionDespliegue:,,,-33.4342,-70.6573
223,Código: 202375703,Departamento,Departamento en Arriendo Santiago - Metropolitana Ver ubicación,Santo Domingo/Morande,$ 270.000,"UF 9,14",1,1,,37 m²,39 m²,35.872.695,03-05-2021,2020 1ºSem,48,-33.4368,-70.6549
224,Código: 202376170,Departamento,Departamento en Arriendo Santiago - Metropolitana Ver ubicación,Santo Domingo con Amunategui,$ 290.000,"UF 9,82",2,1,,40 m²,40 m²,32.599.804,02-06-2021,2020 1ºSem,52,-33.4365,-70.657
225,Código: 25482,Departamento,Departamento en Arriendo Santiago - Metropolitana Ver ubicación,Huerfanos,$ 300.000,"UF 10,16",1,1,,40 m²,46 m²,41.731.621,31-03-2021,2020 1ºSem,52,-33.4397,-70.6567
226,Código: 21359,Departamento,Departamento en Arriendo Santiago - Metropolitana Ver ubicación,Santo Domingo,$ 315.000,"UF 10,67",1,1,,25 m²,27 m²,498.313,30-12-2020,2020 1ºSem,52,-33.4363,-70.6536
227,Código: 202373391,Departamento,Departamento en Arriendo Santiago - Metropolitana Ver ubicación,Amantegui con San Pablo,$ 270.000,"UF 9,14",1,1,,30 m²,31 m²,26.026.541,14-12-2020,2020 1ºSem,52,-33.4342,-70.6576
228,Código: 202029316,Departamento,Departamento en Arriendo Santiago - Metropolitana Ver ubicación,Hermanos Amunátegui / Rosas,$ 270.000,"UF 9,14",1,1,,30 m²,33 m²,,16-06-2021,2020 1ºSem,52,-33.4358,-70.657
229,Código: :codigo:,Departamento,Departamento en Arriendo Santiago - Metropolitana Ver ubicación,Amunategui / Rosas,$ 340.000,"UF 11,51",2,2,,49 m²,54 m²,47.157.351,30-06-2021,2020 1ºSem,52,-33.4371,-70.6569
230,Código: 28684,Departamento,Departamento en Arriendo Santiago - Metropolitana Ver ubicación,Compañia,$ 510.000,"UF 17,27",3,2,,82 m²,82 m²,42.986.434,16-06-2021,2020 1ºSem,52,-33.4388,-70.659
231,Código: 202025717,Departamento,Departamento en Arriendo Santiago - Metropolitana Ver ubicación,Manuel Rodrigues con San Pablo,$ 350.000,"UF 11,85",2,1,,45 m²,47 m²,41.527.285,14-08-2020,2020 1ºSem,52,-33.4338,-70.6599
232,,,Departamento en Arriendo Santiago - Metropolitana Ver ubicación,METRO SANTA ANA/COMPAÑIA/ AMUNATEGUI,$ 235.000,"UF 7,96",1,1,,35 m²,,28.844.219,27-05-2021,2020 1ºSem,52,-33.4388,-70.659
233,,,,,,,1,1,,30 m²,33 m²,34.481.496,07-06-2021,,,-33.4373,-70.6546
234,,Departamento,Departamento en Arriendo Santiago - Metropolitana Ver ubicación,Santo Domingo con Amunategui,$ 364.000,"UF 12,33",1,1,,41 m²,52 m²,59.046.139,18-06-2021,2020 1ºSem,52,-33.4369,-70.6572
235,Código: 202374948,Departamento,Departamento en Arriendo Santiago - Metropolitana Ver ubicación,Santo Domingo con San Martín,$ 300.000,"UF 10,16",1,1,,45 m²,47 m²,46.061.364,13-03-2021,2020 1ºSem,52,-33.4371,-70.6577
236,Código: 202376484,Departamento,Departamento en Arriendo Santiago - Metropolitana Ver ubicación,Metro Santa Ana,$ 240.000,"UF 8,13",1,1,,22 m²,22 m²,30.121.613,18-06-2021,,,-33.4359,-70.659
237,Código: 1028036052-18,Departamento,Departamento en Arriendo Santiago - Metropolitana Ver ubicación,San pablo,$ 260.000,"UF 8,8",1,1,,28 m²,28 m²,19.930.280,04-06-2021,2020 1ºSem,52,-33.4343,-70.6558
238,Código: 6217338,Departamento,Departamento en Arriendo Santiago - Metropolitana Ver ubicación,"(adm)general Mackenna 1500 - 1800, Centro Histórico de Santiago, Santiago, RM (Metropolitana)",$ 390.000,"UF 13,21",2,2,,50 m²,50 m²,,15-06-2021,2020 1ºSem,52,-33.4333,-70.6597
239,Código: 202375111,Departamento,Departamento en Arriendo Santiago - Metropolitana Ver ubicación,Plaza de Armas,$ 330.000,"UF 11,18",3,2,,70 m²,70 m²,30.173.406,20-03-2021,2020 1ºSem,48,-33.4386,-70.6525
240,Código: 202006422,Departamento,Departamento en Arriendo Santiago - Metropolitana Ver ubicación,Amunategui / Rosas,$ 270.000,"UF 9,14",1,1,,32 m²,36 m²,30.741.317,30-06-2021,2020 1ºSem,52,-33.4371,-70.6569
241,Código: 202376294,Departamento,Departamento en Arriendo Santiago - Metropolitana Ver ubicación,Metro Santa Ana,$ 300.000,"UF 10,16",1,1,,29 m²,29 m²,23.633.364,10-06-2021,2020 1ºSem,52,-33.4385,-70.6594
242,Código: 51145,Departamento,Departamento en Arriendo Santiago - Metropolitana Ver ubicación,Rosas/Teatinos,$ 400.000,"UF 13,55",2,2,,67 m²,,58.603.074,17-02-2021,2020 1ºSem,52,-33.4356,-70.6564
243,Código: 202142809,Departamento,Departamento en Arriendo Santiago - Metropolitana Ver ubicación,Rosas con Teatinos,$ 430.000,"UF 14,56",2,2,,62 m²,65 m²,57.803.000,25-09-2020,2020 1ºSem,52,-33.4356,-70.6564
244,Código: 28798,Departamento,Departamento en Arriendo Santiago - Metropolitana Ver ubicación,Rosas,$ 480.000,"UF 16,25",2,2,,60 m²,65 m²,58.585.029,18-06-2021,2020 1ºSem,52,-33.4346,-70.6555
245,Código: 6176756,Departamento,Departamento en Arriendo Santiago - Metropolitana Ver ubicación,"(adm)general Mackenna 1555, Centro Histórico de Santiago, Santiago, RM (Metropolitana)",$ 390.000,"UF 13,21",2,2,,50 m²,50 m²,,15-06-2021,2020 1ºSem,52,-33.4333,-70.6597
246,Código: 202375319,Departamento,Departamento en Arriendo Santiago - Metropolitana Ver ubicación,Metro Parque Almagro,$ 360.000,"UF 12,19",2,2,,49 m²,52 m²,35.299.762,16-06-2021,2020 1ºSem,51,-33.4505,-70.655
247,Código: 202330833,Departamento,Departamento en Arriendo Santiago - Metropolitana Ver ubicación,Metro Toesca,$ 260.000,"UF 8,8",2,1,,48 m²,50 m²,29.796.824,02-06-2021,2020 1ºSem,44,-33.4558,-70.6537
248,Código: 202374159,Departamento,Departamento en Arriendo Santiago - Metropolitana Ver ubicación,Av Blanco Encalada/ Av Manuel Rodriguez,$ 340.000,"UF 11,51",2,1,,44 m²,45 m²,694.097,10-02-2021,2020 1ºSem,51,-33.4564,-70.6586
249,Código: 202375172,Departamento,Departamento en Arriendo Santiago - Metropolitana Ver ubicación,Metro Parque Almagro,$ 225.000,"UF 7,62",1,1,,30 m²,30 m²,23.527.867,24-03-2021,2020 1ºSem,51,-33.4511,-70.6538
250,Código: 47309,Departamento,Departamento en Arriendo Santiago - Metropolitana Ver ubicación,Avda. Bulnes/Eleuterio Ramirez,$ 1.150.000,"UF 38,94",9,3,,210 m²,,104.566.477,24-04-2021,2020 1ºSem,48,-33.45,-70.6526
251,Código: 202102024,Departamento,Departamento en Arriendo Santiago - Metropolitana Ver ubicación,Metro Moneda,$ 340.000,"UF 11,51",2,1,,38 m²,44 m²,30.300.743,25-09-2020,2020 1ºSem,51,-33.4508,-70.6542
252,Código: 47557,Departamento,Departamento en Arriendo Santiago - Metropolitana Ver ubicación,San Ignacio/Eleuterio Ramirez,$ 470.000,"UF 15,92",2,2,,60 m²,,50.663.553,03-05-2021,2020 1ºSem,51,-33.4503,-70.6562
253,Código: 202372792,Departamento,Departamento en Arriendo Santiago - Metropolitana Ver ubicación,Eleuterio Ramirez con San Ignacio,$ 350.000,"UF 11,85",2,2,,50 m²,52 m²,33.366.219,13-11-2020,2020 1ºSem,51,-33.4504,-70.6562
254,,,,,,,,,,,:metrosConstruidos: m²,38.402.747,09-01-2021,,,-33.4517,-70.6564
255,Código: 1028037076-138,Departamento,Departamento en Arriendo Santiago - Metropolitana Ver ubicación,General Las Heras,$ 270.000,"UF 9,14",1,1,,33 m²,35 m²,23.617.889,10-06-2021,2020 1ºSem,51,-33.4534,-70.6571
256,Código: 202051659,Departamento,Departamento en Arriendo Santiago - Metropolitana Ver ubicación,Lord Cochrane/ Eyzaguirre,UF 10,$ 295.294,1,1,,31 m²,32 m²,27.786.023,12-05-2021,2020 1ºSem,44,-33.4539,-70.6544
257,Código: 202376263,Departamento,Departamento en Arriendo Santiago - Metropolitana Ver ubicación,Blanco Encalada / Ejercito,$ 229.000,"UF 7,75",1,1,,35 m²,40 m²,26.715.312,08-06-2021,2020 1ºSem,51,-33.4564,-70.6595
258,Código: 202376080,Departamento,Departamento en Arriendo Santiago - Metropolitana Ver ubicación,Parque Almagro,$ 250.000,"UF 8,47",1,1,,48 m²,48 m²,27.669.562,27-05-2021,2020 1ºSem,51,-33.4503,-70.6535
259,Código: 1028057036-52,Departamento,Departamento en Arriendo Santiago - Metropolitana Ver ubicación,Lord Cochrane,"UF 8,49",$ 250.705,1,1,,31 m²,34 m²,25.971.108,27-04-2021,2020 1ºSem,51,-33.4509,-70.6544
260,Código: 202375173,Departamento,Departamento en Arriendo Santiago - Metropolitana Ver ubicación,Cercano Parque Almagro y Universidad Central,$ 225.000,"UF 7,62",1,1,,30 m²,30 m²,25.810.672,24-03-2021,2020 1ºSem,51,-33.4508,-70.6555
261,Código: 202010872,Departamento,Departamento en Arriendo Vitacura - Metropolitana Ver ubicación,Subida Santa Teresa - Costanera Norte,$ 3.200.000,"UF 108,37",3,3,,170 m²,196 m²,,03-05-2021,2020 1ºSem,85,-33.3726,-70.5414
262,Código: 202030519,Departamento,Departamento en Arriendo Vitacura - Metropolitana Ver ubicación,Escriva de Ballaguer / Del Mirador,$ 1.600.000,"UF 54,18",3,3,,140 m²,150 m²,205.026.781,02-02-2021,2020 1ºSem,87,-33.376,-70.5498
263,Código: 16383,Departamento,Departamento en Arriendo Vitacura - Metropolitana Ver ubicación,Santa Teresa de Los Andes / Vitacura,UF 130,$ 3.838.832,3,4,,308 m²,333 m²,502.238.605,08-01-2021,2020 1ºSem,85,-33.3738,-70.5434
264,Código: 202711854,Departamento,Departamento en Arriendo Vitacura - Metropolitana Ver ubicación,Luis Carrera Las Hualtatas,$ 1.180.000,"UF 39,96",3,3,,164 m²,197 m²,163.440.406,20-03-2021,2020 1ºSem,89,-33.3974,-70.5771
265,Código: 201313401,Casa,Casa en Arriendo Vitacura - Metropolitana Ver ubicación,Clinica Alemana,UF 250,$ 7.382.370,7,6,500 m²,360 m²,,680.041.580,02-10-2020,2020 1ºSem,99,-33.3941,-70.5721
266,Código: 29074,Departamento,Departamento en Arriendo Las Condes - Metropolitana Ver ubicación,Manquehue Norte,$ 800.000,"UF 27,09",2,2,,58 m²,74 m²,117.202.869,30-06-2021,2020 1ºSem,93,-33.3998,-70.5727
267,Código: 202372581,Departamento,Departamento en Arriendo Vitacura - Metropolitana Ver ubicación,Colegio Aleman,$ 1.300.000,"UF 44,02",3,4,,193 m²,200 m²,163.480.131,24-06-2021,2020 1ºSem,96,-33.3967,-70.5713
268,,,:direccion: Ver ubicación,Manquehue norte,$ 1.100.000,"UF 37,25",2,2,,75 m²,80 m²,151.762.596,05-11-2020,2020 1ºSem,93,-33.3996,-70.5716
269,,,,,,,,,,,,,,,,,
270,Código: 1028018067-247,Departamento,Departamento en Arriendo Vitacura - Metropolitana Ver ubicación,Avda Manquehue Norte,$ 470.000,"UF 15,92",1,1,,39 m²,42 m²,43.509.312,01-07-2021,2020 1ºSem,96,-33.3919,-70.5723
271,Código: 202045383,Departamento,Departamento en Arriendo Las Condes - Metropolitana Ver ubicación,Condominio Edificio NK - Los Andes IV,$ 930.000,"UF 31,49",2,2,,"68,9 m²","87,4 m²",,16-03-2021,2020 1ºSem,93,-33.3991,-70.5718
272,Código: :codigo:,,:direccion: Ver ubicación,:titulo:,:precioUF:,:precioDespliegue:,15,6,500 m²,360 m²,,680.041.580,02-10-2020,2020 1ºSem,99,-33.3958,-70.5715
273,Código: 202376442,Departamento,Departamento en Arriendo Las Condes - Metropolitana Ver ubicación,Parque Araucano-Cerro Colorado- Manquehue-Presidente Riesco,$ 1.000.000,"UF 33,86",2,1,,70 m²,78 m²,92.217.071,24-06-2021,2020 1ºSem,93,-33.39957129,-70.57101521
274,Código: 53118,Departamento,Departamento en Arriendo Santiago - Metropolitana Ver ubicación,Lira/Santa Victoria,$ 430.000,"UF 14,56",2,2,,68 m²,,,08-06-2021,2020 1ºSem,55,-33.4478,-70.638
275,Código: 202372064,Departamento,Departamento en Arriendo Santiago - Metropolitana Ver ubicación,Metro Parque Bustamante,$ 250.000,"UF 8,47",1,1,,36 m²,36 m²,26.374.252,17-10-2020,2020 1ºSem,50,-33.4448,-70.6384
276,Código: 202373897,Departamento,Departamento en Arriendo Santiago - Metropolitana Ver ubicación,Metro Parque Bustamante,$ 430.000,"UF 14,56",2,2,,60 m²,60 m²,45.676.010,25-01-2021,2020 1ºSem,55,-33.444,-70.6349
277,Código: 201045353,Casa,Casa en Arriendo Providencia - Metropolitana Ver ubicación,Gral. Bustamante / Rancagua,UF 87,$ 2.569.064,,,300 m²,537 m²,,243.632.571,02-03-2021,,,-33.4402,-70.6337
278,Código: 202374596,Departamento,Departamento en Arriendo Santiago - Metropolitana Ver ubicación,Lira con General Jofré,$ 400.000,"UF 13,55",1,1,,50 m²,50 m²,4.559.251,22-02-2021,2020 1ºSem,55,-33.4464,-70.6398
279,Código: 202376074,Departamento,Departamento en Arriendo Santiago - Metropolitana Ver ubicación,General Jofré con Vicuña Mackenna,$ 340.000,"UF 11,51",2,1,,44 m²,46 m²,35.981.642,27-05-2021,2020 1ºSem,55,-33.4442,-70.6341
280,Código: 201144355,Casa,Casa en Arriendo Providencia - Metropolitana Ver ubicación,Viña de Mar con Ramón Carnicer,UF 53,$ 1.565.062,6,7,254 m²,172 m²,,137.966.577,25-09-2020,,,-33.4404,-70.633
281,Código: 202376020,Departamento,Departamento en Arriendo Santiago - Metropolitana Ver ubicación,Santa Isabel - Vicuña Mackenna,$ 260.000,"UF 8,8",1,1,,32 m²,33 m²,31.593.982,27-05-2021,2020 1ºSem,55,-33.449,-70.632
282,Código: 202029306,Departamento,Departamento en Arriendo Santiago - Metropolitana Ver ubicación,Vicuña Mackenna,$ 320.000,"UF 10,84",2,2,,42 m²,44 m²,2.913.462,15-06-2021,2020 1ºSem,55,-33.449,-70.632
283,Código: 34,Departamento,Departamento en Arriendo Santiago - Metropolitana Ver ubicación,A PASOS DE METRO!,$ 250.000,"UF 8,47",1,1,,30 m²,30 m²,,29-05-2021,2020 1ºSem,55,-33.444,-70.634
284,Código: 202375794,Departamento,Departamento en Arriendo Santiago - Metropolitana Ver ubicación,Portugal con Marín,$ 460.000,"UF 15,58",3,2,,70 m²,70 m²,34.513.591,08-05-2021,2020 1ºSem,55,-33.4471,-70.6357
285,Código: 202372644,Departamento,Departamento en Arriendo Santiago - Metropolitana Ver ubicación,General Jofré con Fray Camilo Henriquez,$ 300.000,"UF 10,16",2,2,,50 m²,52 m²,32.096.671,11-11-2020,2020 1ºSem,55,-33.4444,-70.6349
286,Código: 202375836,Departamento,Departamento en Arriendo Santiago - Metropolitana Ver ubicación,Metro Santa Isabel,$ 350.000,"UF 11,85",2,2,,49 m²,50 m²,40.631.909,16-05-2021,2020 1ºSem,55,-33.4487,-70.6329
287,Código: 202712215,Departamento,Departamento en Arriendo Santiago - Metropolitana Ver ubicación,General Jofre - Vicuña Mackenna,$ 360.000,"UF 12,19",1,1,,34 m²,38 m²,39.159.022,16-05-2021,2020 1ºSem,55,-33.4449,-70.6355
288,Código: 202375496,Departamento,Departamento en Arriendo Santiago - Metropolitana Ver ubicación,Lira,$ 420.000,"UF 14,22",2,2,,49 m²,50 m²,54.207.569,18-04-2021,2020 1ºSem,55,-33.4471,-70.6396
289,,Departamento,Departamento en Arriendo Santiago - Metropolitana Ver ubicación,Metro Parque Bustamante,$ 350.000,"UF 11,85",2,1,,55 m²,55 m²,31.874.718,08-05-2021,2020 1ºSem,55,-33.4444,-70.6354
290,Código: 202006618,Departamento,Departamento en Arriendo Santiago - Metropolitana Ver ubicación,Santa Isabel / Lira,$ 380.000,"UF 12,87",3,2,,60 m²,60 m²,47.168.710,22-05-2021,2020 1ºSem,55,-33.449,-70.6384
291,Código: 201033457,Casa,Casa en Arriendo Providencia - Metropolitana Ver ubicación,Vicuña Mackenna entre Bilbao y Marín,$ 5.500.000,"UF 186,25",11,5,560 m²,550 m²,550 m²,203.948.143,08-02-2019,,,-33.4422,-70.6336
292,Código: 52,Departamento,Departamento en Arriendo Santiago - Metropolitana Ver ubicación,EXCELENTE CONECTIVIDAD,$ 250.000,"UF 8,47",,,,32 m²,32 m²,,18-05-2021,2020 1ºSem,55,-33.4472,-70.639
293,Código: :codigo:,,:direccion: Ver ubicación,:titulo:,:precioUF:,:precioDespliegue:,:dormitoriosText:,:,:superficieTerreno: m²,:metrosUtiles: m²,:metrosConstruidos: m²,:avaluoFiscalTotalPesos:,:fechaPublicacionDespliegue:,2020 1ºSem,55,-33.4462,-70.6391
294,Código: :codigo:,,:direccion: Ver ubicación,:titulo:,:precioUF:,:precioDespliegue:,:dormitoriosText:,:,:superficieTerreno: m²,:metrosUtiles: m²,:metrosConstruidos: m²,,15-06-2021,2020 1ºSem,52,-33.4467,-70.6325
295,Código: 202036977,Departamento,Departamento en Arriendo Santiago - Metropolitana Ver ubicación,Santa Isabel/Vicuña Mackenna,$ 300.000,"UF 10,16",1,1,,33 m²,35 m²,25.345.938,03-12-2020,2020 1ºSem,55,-33.4477,-70.6337
296,Código: 23179,Departamento,Departamento en Arriendo Santiago - Metropolitana Ver ubicación,Argomedo,"UF 16,5",$ 487.236,2,2,,44 m²,46 m²,31.670.895,06-02-2021,2020 1ºSem,55,-33.4497,-70.6356
297,Código: :codigo:,,,"Parque Bustamante, Santiago",$ 320.000,"UF 10,84",1,1,,"31,2 m²","38,3 m²",33.437.877,18-06-2021,2020 1ºSem,55,-33.4452,-70.6352
298,Código: 52462,Departamento,Departamento en Arriendo Las Condes - Metropolitana Ver ubicación,Kennedy/Vespuccio,$ 600.000,"UF 20,32",3,2,,84 m²,,40.789.415,17-04-2021,2020 1ºSem,70,-33.4052,-70.585
299,Código: 1574174,Departamento,Departamento en Arriendo Las Condes - Metropolitana Ver ubicación,Presidente Riesco - Alonso de Córdova,$ 1.500.000,"UF 50,8",3,3,,120 m²,126 m²,,21-01-2021,2020 1ºSem,88,-33.4065,-70.5801
300,Código: 52829,Departamento,Departamento en Arriendo Vitacura - Metropolitana Ver ubicación,El Arcángel/Pio XI,UF 34,$ 1.004.002,3,2,,114 m²,,163.266.864,18-05-2021,2020 1ºSem,89,-33.4011,-70.5819
301,Código: 1028071029-11,Departamento,Departamento en Arriendo Las Condes - Metropolitana Ver ubicación,Cerro La Parva,$ 600.000,"UF 20,32",2,2,,73 m²,73 m²,40.789.415,12-05-2021,2020 1ºSem,70,-33.4053,-70.5842
302,,,,,:precioUF:,"UF 30,48",2,2,125 m²,,92 m²,122.140.486,26-06-2021,,,-33.4088981,-70.5877611
303,Código: 202001804,Departamento,Departamento en Arriendo Las Condes - Metropolitana Ver ubicación,Americo Vespucio con Avenida Kennedy,UF 47,$ 1.387.885,2,3,,230 m²,260 m²,214.355.874,14-04-2021,2020 1ºSem,87,-33.4052,-70.5868
304,Código: 2576022,Departamento,Departamento en Arriendo Vitacura - Metropolitana Ver ubicación,SECTOR HOTEL KENNEDY,$ 1.000.000,"UF 33,86",3,2,,,160 m²,172.923.261,03-03-2021,2020 1ºSem,89,-33.4027,-70.5842
305,Código: 202008741,Departamento,Departamento en Arriendo Las Condes - Metropolitana Ver ubicación,Club de Golf,"UF 154,57",$ 4.564.371,3,3,,720 m²,1.020 m²,293.780.804,28-05-2021,2020 1ºSem,87,-33.4066,-70.5879
306,Código: 202015545,Departamento,Departamento en Arriendo Vitacura - Metropolitana Ver ubicación,Las Hualtatas/Pio XI,$ 790.000,"UF 26,75",2,2,,70 m²,78 m²,103.206.131,03-06-2021,2020 1ºSem,89,-33.4004,-70.581
307,Código: 202201202,Departamento,Departamento en Arriendo Las Condes - Metropolitana Ver ubicación,Parque Araucano,$ 1.500.000,"UF 50,8",3,3,,240 m²,260 m²,213.621.561,06-05-2021,2020 1ºSem,70,-33.4052,-70.5836
308,Código: 202052494,Departamento,Departamento en Arriendo Vitacura - Metropolitana Ver ubicación,PARQUE ARAUCO,$ 1.600.000,"UF 54,18",3,4,,210 m²,250 m²,187.575.047,06-02-2019,2020 1ºSem,89,-33.4017,-70.5817
309,,,,,,,,,,,,,,,,,
310,Código: 1577684,Departamento,Departamento en Arriendo Las Condes - Metropolitana Ver ubicación,Presidente Riesco - Alonso de Córdova,$ 1.300.000,"UF 44,02",3,3,,120 m²,126 m²,,26-05-2021,2020 1ºSem,88,-33.4065,-70.5801
311,Código: 202008408,Departamento,Departamento en Arriendo Las Condes - Metropolitana Ver ubicación,Alonso de Córdova / Parque Araucano,$ 1.600.000,"UF 54,18",3,3,,240 m²,270 m²,213.621.561,27-06-2021,2020 1ºSem,70,-33.405,-70.5827
312,Código: 202006833,Departamento,Departamento en Arriendo Vitacura - Metropolitana Ver ubicación,Las Hualtatas,UF 44,$ 1.299.297,3,3,,250 m²,300 m²,275.405.919,04-02-2021,2020 1ºSem,91,-33.4011,-70.5876
313,Código: 202000646,Departamento,Departamento en Arriendo Lo Barnechea - Metropolitana Ver ubicación,LOS CACTUS,$ 1.000.000,"UF 33,86",2,2,,85 m²,85 m²,84.073.167,18-06-2021,2020 1ºSem,90,-33.356,-70.519
314,Código: 201047275,Casa,Casa en Arriendo Lo Barnechea - Metropolitana Ver ubicación,La Dehesa/ El Rodeo,UF 140,$ 4.134.127,4,3,936 m²,236 m²,472 m²,542.532.951,14-10-2020,2020 1ºSem,74,-33.3523,-70.5152
315,Código: 1544998,Casa,Casa en Arriendo Lo Barnechea - Metropolitana Ver ubicación,Esplendida casa con finas terminaciones,$ 6.234.000,"UF 211,11",4,3,1.710 m²,400 m²,,564.861.621,16-04-2021,2020 1ºSem,74,-33.3506,-70.5124
316,Código: 202373108,Departamento,Departamento en Arriendo Lo Barnechea - Metropolitana Ver ubicación,Portal La Dehesa,$ 1.600.000,"UF 54,18",3,3,,133 m²,164 m²,207.365.980,11-05-2021,2020 1ºSem,90,-33.3599,-70.5197
317,Código: 202005078,Departamento,Departamento en Arriendo Lo Barnechea - Metropolitana Ver ubicación,Precioso Dpto Portal la dehesa / AMOBLADO,$ 1.700.000,"UF 57,57",2,3,,"130,3 m²","155,5 m²",180.831.129,18-06-2020,2020 1ºSem,83,-33.3591,-70.5151
318,Código: 201047316,Casa,Casa en Arriendo Lo Barnechea - Metropolitana Ver ubicación,"Rodeo, La Dehesa",UF 140,$ 4.134.127,4,4,924 m²,328 m²,328 m²,495.697.557,06-02-2019,2020 1ºSem,74,-33.3524,-70.5152
319,Código: 29101,Departamento,Departamento en Arriendo Lo Barnechea - Metropolitana Ver ubicación,La Espuela,"UF 37,5",$ 1.107.355,2,2,,111 m²,128 m²,169.135.413,28-06-2021,2020 1ºSem,90,-33.357,-70.5243
320,Código: 202005706,Departamento,Departamento en Arriendo Lo Barnechea - Metropolitana Ver ubicación,Clasico 4 dormitorios+ Servicios* Frente al MALL LA DEHESA*,$ 2.500.000,"UF 84,66",4,4,,187 m²,234 m²,220.864.661,08-05-2021,2020 1ºSem,90,-33.3589,-70.5207
321,,,,,,,,,,:metrosUtiles: m²,:metrosConstruidos: m²,181.150.659,12-06-2021,,,-33.3596,-70.5213
322,Código: 1028018011-279,Departamento,Departamento en Arriendo Lo Barnechea - Metropolitana Ver ubicación,La Espuela,UF 54,$ 1.594.591,4,4,,140 m²,160 m²,,18-05-2021,2020 1ºSem,90,-33.3569,-70.5222
323,Código: 202231992,Departamento,Departamento en Arriendo Lo Barnechea - Metropolitana Ver ubicación,La Dehesa Central,$ 1.650.000,"UF 55,88",4,3,,139 m²,139 m²,199.600.815,03-05-2021,2020 1ºSem,90,-33.3599,-70.5224
324,Código: 202005707,Departamento,Departamento en Arriendo Lo Barnechea - Metropolitana Ver ubicación,Clasico 4 dormitorios+ Servicios* Frente al MALL LA DEHESA*,$ 2.500.000,"UF 84,66",4,4,,187 m²,234 m²,220.864.661,28-04-2021,2020 1ºSem,90,-33.3589,-70.5207
325,Código: 202113949,Departamento,Departamento en Arriendo Las Condes - Metropolitana Ver ubicación,AMOBLADO / Hdo de Magallanes,$ 525.000,"UF 17,78",1,1,,36 m²,40 m²,53.945.229,05-06-2020,,82,-33.4033,-70.5546
326,Código: EB-DA5458,Departamento,Departamento en Arriendo Las Condes - Metropolitana Ver ubicación,Metro Manquehue.,UF 24,$ 708.707,2,2,,79 m²,1 m²,,17-06-2021,2020 1ºSem,109,-33.4017,-70.5561
327,Código: 1028076006-226,Departamento,Departamento en Arriendo Las Condes - Metropolitana Ver ubicación,General Carol Urzúa,$ 750.000,"UF 25,4",2,2,,58 m²,64 m²,68.781.891,25-04-2021,2020 1ºSem,82,-33.4061,-70.5577
328,Código: 202077709,Departamento,Departamento en Arriendo Las Condes - Metropolitana Ver ubicación,Avenida Las Condes / Metro Hernando de Magallanes,$ 435.000,"UF 14,73",1,1,,"36,2 m²","36,2 m²",50.580.857,16-05-2021,2020 1ºSem,82,-33.4046,-70.5566
329,,Departamento,Departamento en Arriendo Las Condes - Metropolitana Ver ubicación,General Carol Urzúa,$ 600.000,"UF 20,32",1,1,,40 m²,35 m²,44.467.098,25-09-2020,2020 1ºSem,91,-33.4066,-70.559
330,,Departamento,Departamento en Arriendo Las Condes - Metropolitana Ver ubicación,General Carol Urzúa,$ 600.000,"UF 20,32",1,1,,40 m²,35 m²,44.467.098,25-09-2020,2020 1ºSem,91,-33.4066,-70.559
331,Código: 201030369,Casa,Casa en Arriendo Las Condes - Metropolitana Ver ubicación,Av Las Condes- Las Tranqueras,UF 80,$ 2.362.358,7,2,375 m²,140 m²,,244.801.078,26-10-2020,2020 1ºSem,83,-33.40162446,-70.55757008
332,Código: 1028046036-19,Departamento,Departamento en Arriendo Las Condes - Metropolitana Ver ubicación,Carol Urzúa,"UF 16,2",$ 478.377,1,1,,40 m²,48 m²,52.379.973,25-05-2021,2020 1ºSem,82,-33.4054,-70.5569
333,Código: 26576,Departamento,Departamento en Arriendo Las Condes - Metropolitana Ver ubicación,General Carol Urzua,$ 450.000,"UF 15,24",1,1,,41 m²,45 m²,58.960.256,23-04-2021,2020 1ºSem,82,-33.4057,-70.5573
334,Código: 202078759,Departamento,Departamento en Arriendo Las Condes - Metropolitana Ver ubicación,La Oración / Las Tranqueras,$ 720.000,"UF 24,38",2,2,,60 m²,72 m²,80.714.096,16-06-2021,2020 1ºSem,109,-33.4017,-70.5561
335,Código: 202375776,Departamento,Departamento en Arriendo Las Condes - Metropolitana Ver ubicación,La Oración,UF 22,$ 649.648,1,1,,45 m²,55 m²,72.228.937,08-05-2021,2020 1ºSem,109,-33.4023,-70.5565
336,,,,,,,,,,,,,,,,,
337,Código: 1028018289-19,Departamento,Departamento en Arriendo Providencia - Metropolitana Ver ubicación,PEREZ VALENZUELA,$ 560.000,"UF 18,96",2,2,,50 m²,60 m²,25.662.462,27-02-2021,2020 1ºSem,68,-33.4289,-70.6218
338,Código: 202376340,Departamento,Departamento en Arriendo Providencia - Metropolitana Ver ubicación,Miguel Claro,$ 580.000,"UF 19,64",2,2,,81 m²,81 m²,46.039.674,18-06-2021,2020 1ºSem,68,-33.4298,-70.6227
339,Código: 202375411,Departamento,Departamento en Arriendo Providencia - Metropolitana Ver ubicación,"Cercano a Plaza Monte Carmelo, Metro Salvador",$ 450.000,"UF 15,24",2,1,,60 m²,60 m²,31.988.373,08-04-2021,2020 1ºSem,63,-33.4297,-70.6281
340,Código: 202011605,Departamento,Departamento en Arriendo Providencia - Metropolitana Ver ubicación,Avenida El Cerro - Josefina Edwards,$ 950.000,"UF 32,17",2,2,,73 m²,85 m²,,23-04-2021,2020 1ºSem,69,-33.4224,-70.6222
341,Código: 202053915,Departamento,Departamento en Arriendo Providencia - Metropolitana Ver ubicación,ANDRES BELLO Y BELLET,$ 410.000,"UF 13,88",1,1,,40 m²,46 m²,33.706.511,17-10-2020,2020 1ºSem,68,-33.4247,-70.6208
342,Código: 202011625,Departamento,Departamento en Arriendo Providencia - Metropolitana Ver ubicación,Edificio Now - Avenida El Cerro,$ 950.000,"UF 32,17",2,2,,76 m²,88 m²,92.327.225,25-05-2021,2020 1ºSem,69,-33.4224,-70.6222
343,Código: 53127,Departamento,Departamento en Arriendo San Miguel - Metropolitana Ver ubicación,San Francisco/Perez Alcaino Lilian,$ 370.000,"UF 12,53",2,2,,47 m²,,38.242.096,05-06-2021,2020 1ºSem,45,-33.4872,-70.6449
344,Código: 202375303,Departamento,Departamento en Arriendo San Miguel - Metropolitana Ver ubicación,Metro El llano,$ 500.000,"UF 16,93",3,2,,70 m²,75 m²,65.185.500,02-04-2021,2020 1ºSem,45,-33.4862,-70.6499
345,Código: 201005239,Casa,Casa en Arriendo Vitacura - Metropolitana Ver ubicación,Casa HABITACIONAL con POTENCIAL COMERCIAL para REMODELAR,UF 95,$ 2.805.300,4,3,240 m²,150 m²,,185.566.259,24-03-2020,2020 1ºSem,108,-33.389,-70.564
346,Código: 1028050080-11,Casa,Casa en Arriendo Vitacura - Metropolitana Ver ubicación,Gernonimo de Alderete,UF 85,$ 2.510.005,4,3,300 m²,300 m²,,185.566.259,15-12-2020,2020 1ºSem,108,-33.3889,-70.564
347,Código: 202002004,Departamento,Departamento en Arriendo Vitacura - Metropolitana Ver ubicación,sector sport Frances,$ 815.000,"UF 27,6",3,2,,115 m²,125 m²,,06-05-2021,2020 1ºSem,86,-33.3849,-70.5615
348,Código: 202078148,Departamento,Departamento en Arriendo Vitacura - Metropolitana Ver ubicación,CARMEN FARIÑA / SPORT FRANCES,UF 48,$ 1.417.415,3,3,,140 m²,180 m²,127.033.755,18-04-2021,2020 1ºSem,86,-33.3829,-70.564
349,Código: 202375679,Departamento,Departamento en Arriendo Vitacura - Metropolitana Ver ubicación,Juan XXIII / Joaquín Cerda,$ 1.050.000,"UF 35,56",3,3,,130 m²,140 m²,98.430.929,28-04-2021,2020 1ºSem,81,-33.3841,-70.57
350,Código: 1028002047-36,Departamento,Departamento en Arriendo Vitacura - Metropolitana Ver ubicación,manquehue norte,$ 635.000,"UF 21,5",2,2,,62 m²,62 m²,63.591.020,30-04-2021,2020 1ºSem,81,-33.3861,-70.5772
351,Código: 202075984,Departamento,Departamento en Arriendo Providencia - Metropolitana Ver ubicación,Carlos Silva Vildósola,$ 730.000,"UF 24,72",3,3,,107 m²,119 m²,100.535.442,14-12-2020,2020 1ºSem,75,-33.4272,-70.594
352,Código: 202045428,Departamento,Departamento en Arriendo Providencia - Metropolitana Ver ubicación,Carmen Sylva / El Bosque,$ 780.000,"UF 26,41",3,3,,105 m²,145 m²,102.233.451,28-03-2021,2020 1ºSem,75,-33.4241,-70.5967
353,,,,,,,:dormitoriosText:,:,:superficieTerreno: m²,:metrosUtiles: m²,:metrosConstruidos: m²,122.316.315,24-06-2021,,88,-33.421,-70.5911
354,Código: 1577694,Departamento,Departamento en Arriendo Providencia - Metropolitana Ver ubicación,"Barrio Las Lilas, grandes espacios. Tour virtual",$ 1.800.000,"UF 60,96",3,3,,230 m²,250 m²,223.782.041,02-06-2021,2020 1ºSem,75,-33.4282,-70.5995
355,Código: 202036110,Departamento,Departamento en Arriendo Providencia - Metropolitana Ver ubicación,CARLOS ANTUNEZ,UF 65,$ 1.919.416,3,2,,195 m²,195 m²,,11-05-2021,2020 1ºSem,75,-33.4271,-70.5989
356,Código: 202045414,Departamento,Departamento en Arriendo Providencia - Metropolitana Ver ubicación,El Bosque / Tobalaba,$ 450.000,"UF 15,24",1,1,,50 m²,55 m²,61.981.564,20-03-2021,2020 1ºSem,75,-33.4213,-70.5991
357,Código: 202376084,Departamento,Departamento en Arriendo Providencia - Metropolitana Ver ubicación,Carlos Antúnez/Eliodoro Yañez,$ 1.800.000,"UF 60,96",3,2,,230 m²,250 m²,223.782.041,29-05-2021,2020 1ºSem,75,-33.4282,-70.5995
358,Código: 202044598,Departamento,Departamento en Arriendo Providencia - Metropolitana Ver ubicación,Marcel Duhaut / Metro Cristóbal Colón,$ 1.300.000,"UF 44,02",3,2,,100 m²,112 m²,63.136.262,02-07-2020,2020 1ºSem,75,-33.428,-70.5907
359,Código: 26180,Departamento,Departamento en Arriendo Providencia - Metropolitana Ver ubicación,El Canelo,$ 400.000,"UF 13,55",1,1,,48 m²,50 m²,61.981.564,16-04-2021,2020 1ºSem,75,-33.4213,-70.599
360,Código: 202042850,Departamento,Departamento en Arriendo Providencia - Metropolitana Ver ubicación,El Bosque / Lota,$ 1.350.000,"UF 45,72",3,3,,236 m²,253 m²,264.938.045,12-10-2019,2020 1ºSem,75,-33.4226,-70.5983
361,Código: 202375177,Departamento,Departamento en Arriendo Recoleta - Metropolitana Ver ubicación,Bellavista / Loreto,$ 270.000,"UF 9,14",1,1,,27 m²,31 m²,17.272.757,04-05-2021,2020 1ºSem,55,-33.4336,-70.6364
362,,Departamento,Departamento en Arriendo Providencia - Metropolitana Ver ubicación,"Estilo Mariposa, Av. Santa María",$ 680.000,"UF 23,03",2,2,70 m²,65 m²,70 m²,58.991.606,31-05-2021,2020 1ºSem,63,-33.4349078,-70.632541
363,,,,,,,,,,:metrosUtiles: m²,,26.565.918,01-01-2021,,,-33.4338,-70.6364
364,Código: 202078927,Departamento,Departamento en Arriendo Santiago - Metropolitana Ver ubicación,Metro Universidad Católica,$ 410.000,"UF 13,88",2,2,,60 m²,60 m²,62.091.155,01-07-2021,2020 1ºSem,50,-33.4399,-70.6364
365,Código: 202376379,Departamento,Departamento en Arriendo Santiago - Metropolitana Ver ubicación,Metro Baquedano,$ 250.000,"UF 8,47",1,1,,35 m²,35 m²,34.246.284,16-06-2021,2020 1ºSem,59,-33.4373,-70.6383
366,Código: 202078893,Departamento,Departamento en Arriendo Providencia - Metropolitana Ver ubicación,Ramon Burhle esquina Ramon Carnicer,$ 300.000,"UF 10,16",1,1,,43 m²,43 m²,21.862.516,27-06-2021,2020 1ºSem,56,-33.4384,-70.6334
367,Código: 202374582,Departamento,Departamento en Arriendo Santiago - Metropolitana Ver ubicación,Plaza Italia,$ 240.000,"UF 8,13",1,1,,32 m²,36 m²,30.634.490,28-04-2021,2020 1ºSem,50,-33.4379,-70.6362
368,Código: 201006553,Casa,Casa en Arriendo Recoleta - Metropolitana Ver ubicación,Ernesto Pinto Lagarrigue interior,$ 1.000.000,"UF 33,86",,,190 m²,160 m²,,85.652.666,01-07-2021,,,-33.4327,-70.6374
369,Código: 201372447,Casa,Casa en Arriendo Providencia - Metropolitana Ver ubicación,Mallinkrodt sector patio de comidas,$ 6.000.000,"UF 203,19",3,4,276 m²,520 m²,,168.741.852,30-10-2020,2020 1ºSem,46,-33.4347,-70.635
370,Código: 28994,Casa,Casa en Arriendo La Reina - Metropolitana Ver ubicación,Alvaro Casanova,$ 2.600.000,"UF 88,05",6,6,680 m²,240 m²,,235.513.400,24-06-2021,2020 1ºSem,76,-33.4409,-70.517
371,Código: 201008477,Casa,Casa en Arriendo Las Condes - Metropolitana Ver ubicación,San Damian,UF 230,$ 6.791.780,4,4,2.685 m²,1.364 m²,,1.094.645.100,28-05-2021,2020 1ºSem,87,-33.3773,-70.5165
372,Código: 202160717,Departamento,Departamento en Arriendo Las Condes - Metropolitana Ver ubicación,"San Damián, Las Condes",UF 155,$ 4.577.069,5,4,,377 m²,477 m²,56.626.931,19-02-2020,2020 1ºSem,82,-33.3758,-70.5183
373,Código: 1559810,Departamento,Departamento en Arriendo Las Condes - Metropolitana Ver ubicación,Arriendo depto en San Damián,UF 140,$ 4.134.127,4,4,,387 m²,,510.540.976,24-09-2019,2020 1ºSem,82,-33.3799,-70.5147
374,Código: 1028046016-165,Departamento,Departamento en Arriendo Las Condes - Metropolitana Ver ubicación,Av Las Condes / Cantagallo,"UF 16,9",$ 499.048,1,1,,37 m²,37 m²,,15-06-2021,2020 1ºSem,79,-33.3715,-70.5144
375,Código: 1028046016-163,Departamento,Departamento en Arriendo Las Condes - Metropolitana Ver ubicación,Av. Las Condes,"UF 18,7",$ 552.201,1,1,,"46,9 m²",57 m²,,15-06-2021,2020 1ºSem,79,-33.3708,-70.5132
376,Código: 1028046016-164,Departamento,Departamento en Arriendo Las Condes - Metropolitana Ver ubicación,Av Las Condes / Cantagallo,"UF 16,9",$ 499.048,1,1,,37 m²,37 m²,,15-06-2021,2020 1ºSem,79,-33.3715,-70.5144
377,Código: 202134755,Departamento,Departamento en Arriendo Las Condes - Metropolitana Ver ubicación,Amoblado Av. Las Condes / Cantagallo,$ 790.000,"UF 26,75",2,2,,75 m²,90 m²,,08-06-2021,2020 1ºSem,82,-33.372,-70.5148
378,Código: 1577874,Departamento,Departamento en Arriendo Vitacura - Metropolitana Ver ubicación,Moderno departamento con vistas a la cordillera,$ 1.100.000,"UF 37,25",3,3,,110 m²,110 m²,125.583.549,03-06-2021,2020 1ºSem,102,-33.3705326,-70.5185545
379,Código: 202058773,Departamento,Departamento en Arriendo Las Condes - Metropolitana Ver ubicación,SAN FRANCISCO DE ASIS / FRAY BERNARDO,$ 3.400.000,"UF 115,14",4,4,,350 m²,470 m²,472.617.818,02-06-2021,2020 1ºSem,82,-33.376,-70.5158
380,Código: 1575162,Departamento,Departamento en Arriendo Las Condes - Metropolitana Ver ubicación,Las Condes - AMOBLADO,"UF 27,5",$ 812.060,2,2,,"59,5 m²",,82.582.297,16-02-2021,2020 1ºSem,82,-33.3728,-70.512
381,Código: 202030640,Departamento,Departamento en Arriendo Las Condes - Metropolitana Ver ubicación,CONDOMINIO. MIRADOR DE SAN DAMIAN,UF 95,$ 2.805.300,3,4,,380 m²,380 m²,,27-05-2021,2020 1ºSem,123,-33.3801,-70.502
382,Código: EB-HV0112,Casa,Casa en Arriendo Las Condes - Metropolitana Ver ubicación,San Carlos de Apoquindo.,UF 95,$ 2.805.300,5,5,480 m²,305 m²,,,24-06-2021,2020 1ºSem,92,-33.389,-70.5055
383,Código: 1571691,Casa,Casa en Arriendo Vitacura - Metropolitana Ver ubicación,Casa en arriendo condominio exclusivo.( opción amoblada),$ 5.000.000,"UF 169,32",5,4,1.093 m²,600 m²,,455.963.633,30-10-2020,2020 1ºSem,79,-33.3695,-70.5554
384,Código: D3550,Casa,Casa en Arriendo Vitacura - Metropolitana Ver ubicación,GRAN VÍA / VÍA ROJA,$ 5.000.000,"UF 169,32",4,4,3.000 m²,500 m²,,,11-03-2019,2020 1ºSem,79,-33.3685,-70.5559
385,Código: 202375938,Departamento,Departamento en Arriendo Ñuñoa - Metropolitana Ver ubicación,San Jorge - Francisco de Villagra,$ 410.000,"UF 13,88",1,1,,34 m²,35 m²,36.465.309,30-05-2021,2020 1ºSem,72,-33.4549,-70.5763
386,Código: 28436,Departamento,Departamento en Arriendo Ñuñoa - Metropolitana Ver ubicación,Irarrázaval,$ 550.000,"UF 18,63",2,2,,68 m²,72 m²,44.586.711,18-06-2021,2020 1ºSem,75,-33.454,-70.577
387,Código: 1028061019-116,Departamento,Departamento en Arriendo Ñuñoa - Metropolitana Ver ubicación,Plaza Egaña,$ 440.000,"UF 14,9",1,1,,35 m²,43 m²,,09-06-2021,2020 1ºSem,72,-33.4524,-70.5711
388,Código: 202053100,Departamento,Departamento en Arriendo Ñuñoa - Metropolitana Ver ubicación,Irarrázaval / Heriberto Covarrubias,$ 450.000,"UF 15,24",1,2,,49 m²,57 m²,57.661.724,18-05-2021,2020 1ºSem,72,-33.4536,-70.574
389,Código: 202129984,Departamento,Departamento en Arriendo Ñuñoa - Metropolitana Ver ubicación,Los Aliaga con Duble Almeyda,$ 350.000,"UF 11,85",1,1,,34 m²,40 m²,30.925.378,10-04-2021,2020 1ºSem,64,-33.4588,-70.5761
390,Código: 201043891,Casa,Casa en Arriendo Ñuñoa - Metropolitana Ver ubicación,Fénelon / Metro Plaza Egaña / Francisco de Villagra,$ 1.500.000,"UF 50,8",4,2,185 m²,140 m²,,94.475.185,20-03-2021,2020 1ºSem,53,-33.4556,-70.5743
391,Código: 1028061019-115,Departamento,Departamento en Arriendo Ñuñoa - Metropolitana Ver ubicación,Plaza Egaña,$ 440.000,"UF 14,9",1,1,,34 m²,43 m²,,09-06-2021,2020 1ºSem,72,-33.4524,-70.5711
392,Código: 202077695,Departamento,Departamento en Arriendo Ñuñoa - Metropolitana Ver ubicación,Cauquenes con Irarrázaval,$ 750.000,"UF 25,4",3,2,,98 m²,101 m²,54.932.519,12-03-2021,2020 1ºSem,72,-33.4559,-70.5762
393,Código: 21049,Departamento,Departamento en Arriendo Ñuñoa - Metropolitana Ver ubicación,Departamento Nuevo,$ 750.000,"UF 25,4",2,2,,73 m²,90 m²,,25-06-2021,2020 1ºSem,72,-33.4574,-70.5752
394,Código: 1028080032-2,Departamento,Departamento en Arriendo Santiago - Metropolitana Ver ubicación,Acogedor Depto 2D+1B av almirante blanco encalada,$ 310.000,"UF 10,5",2,1,,41 m²,41 m²,27.946.524,13-06-2021,2020 1ºSem,51,-33.4565,-70.6627
395,Código: 53326,Departamento,Departamento en Arriendo Santiago - Metropolitana Ver ubicación,EJERCITO/TOESCA,$ 370.000,"UF 12,53",2,2,,45 m²,,36.204.871,19-06-2021,2020 1ºSem,51,-33.4538,-70.6607
396,Código: 1028046052-74,Departamento,Departamento en Arriendo Santiago - Metropolitana Ver ubicación,Av. España,UF 8,$ 236.235,1,1,,33 m²,33 m²,28.618.053,15-06-2021,2020 1ºSem,51,-33.4515,-70.6696
397,Código: 1028063005-74,Departamento,Departamento en Arriendo Santiago - Metropolitana Ver ubicación,Toesca,$ 310.000,"UF 10,5",1,1,,37 m²,37 m²,26.938.518,23-06-2021,2020 1ºSem,51,-33.4533,-70.6619
398,Código: 201010900,Casa,Casa en Arriendo Santiago - Metropolitana Ver ubicación,Palacio Mac Clure - República,UF 150,$ 4.429.422,20,5,1.010 m²,"981,6 m²",,,19-05-2021,2020 1ºSem,22,-33.4554,-70.6667
399,Código: 202375888,Departamento,Departamento en Arriendo Santiago - Metropolitana Ver ubicación,Metro República,$ 280.000,"UF 9,48",1,1,,29 m²,32 m²,84.306.942,16-05-2021,2020 1ºSem,51,-33.4507,-70.6641
400,Código: 26868,Departamento,Departamento en Arriendo Santiago - Metropolitana Ver ubicación,Jose Miguel Carrera,$ 280.000,"UF 9,48",1,1,,32 m²,33 m²,26.039.246,02-05-2021,2020 1ºSem,51,-33.453,-70.6634
401,,Departamento,Departamento en Arriendo Santiago - Metropolitana Ver ubicación,Metro Toesca,$ 450.000,"UF 15,24",3,2,,70 m²,70 m²,49.527.228,25-01-2021,2020 1ºSem,51,-33.4539,-70.6603
402,Código: 201181973,Casa,Casa en Arriendo La Reina - Metropolitana Ver ubicación,Echeñique/Tobalaba,UF 385,$ 11.368.849,4,3,5.000 m²,500 m²,,265.874.028,24-09-2020,2020 1ºSem,66,-33.4451,-70.5655
403,Código: 202036885,Departamento,Departamento en Arriendo Las Condes - Metropolitana Ver ubicación,"DOMINICOS, UNICO DEPARTAMENTO",UF 150,$ 4.429.422,4,4,,470 m²,600 m²,657.845.925,15-12-2020,,,-33.3979,-70.524
404,Código: 47664,Casa,Casa en Arriendo Las Condes - Metropolitana Ver ubicación,Camino Las Flores/Piedra Roja,$ 2.900.000,"UF 98,21",6,4,1.500 m²,420 m²,,475.519.132,23-06-2021,2020 1ºSem,80,-33.395,-70.5213
405,,,,,,,,,,,,,,,,,
406,,,,,,,,,,,,,:fechaPublicacionDespliegue:,,,-33.3968,-70.5262
407,Código: 1028050070-68,Departamento,Departamento en Arriendo Las Condes - Metropolitana Ver ubicación,Se arrienda departamento en Presidente Riesco,$ 700.000,"UF 23,71",2,2,,76 m²,76 m²,,19-05-2021,2020 1ºSem,93,-33.3964,-70.5592
408,Código: 1572059,Departamento,Departamento en Arriendo Las Condes - Metropolitana Ver ubicación,Capitán Crosbie / linda vista,$ 1.600.000,"UF 54,18",4,4,,140 m²,180 m²,,04-11-2020,2020 1ºSem,93,-33.3954,-70.5582
409,Código: 1028050049-23,Departamento,Departamento en Arriendo Las Condes - Metropolitana Ver ubicación,REINA ASTRID,$ 640.000,"UF 21,67",2,2,,77 m²,"83,6 m²",,23-06-2020,2020 1ºSem,93,-33.3932,-70.5564
410,Código: 202074774,Departamento,Departamento en Arriendo Las Condes - Metropolitana Ver ubicación,HERMANOS CABOT,$ 1.200.000,"UF 40,64",3,3,,132 m²,147 m²,185.573.691,27-06-2021,2020 1ºSem,93,-33.3956,-70.5577
411,Código: 202008895,Departamento,Departamento en Arriendo Las Condes - Metropolitana Ver ubicación,Colegio Rafael Sotomayor,$ 1.050.000,"UF 35,56",2,2,,90 m²,103 m²,122.737.908,27-06-2021,2020 1ºSem,93,-33.3943,-70.5567
412,Código: 202010763,Departamento,Departamento en Arriendo Las Condes - Metropolitana Ver ubicación,Capitán Crosbie - Hermanos Cabot,$ 1.400.000,"UF 47,41",2,3,,100 m²,220 m²,140.457.223,24-05-2021,2020 1ºSem,93,-33.3948,-70.558
413,Código: 1028057048-70,Departamento,Departamento en Arriendo Ñuñoa - Metropolitana Ver ubicación,Juan Moya Morales,$ 380.000,"UF 12,87",1,1,,40 m²,40 m²,43.401.412,20-06-2021,2020 1ºSem,59,-33.4558,-70.5857
414,Código: 202053241,Departamento,Departamento en Arriendo Ñuñoa - Metropolitana Ver ubicación,Battle y Ordoñez/Pedro Torres,$ 530.000,"UF 17,95",2,2,,64 m²,75 m²,,12-06-2021,2020 1ºSem,48,-33.4501,-70.5877
415,Código: 202376601,Departamento,Departamento en Arriendo Ñuñoa - Metropolitana Ver ubicación,Augusto Villanueva con Irarrazabal,$ 580.000,"UF 19,64",2,2,,65 m²,69 m²,68.976.859,01-07-2021,2020 1ºSem,75,-33.455,-70.5877
416,Código: 1028063037-11,Departamento,Departamento en Arriendo La Reina - Metropolitana Ver ubicación,OBISPO DEL SOLAR,$ 420.000,"UF 14,22",1,1,,32 m²,32 m²,,22-06-2021,2020 1ºSem,68,-33.4507,-70.5691
417,Código: 201181403,Casa,Casa en Arriendo La Reina - Metropolitana Ver ubicación,Dragones de la Reina,$ 1.250.000,"UF 42,33",3,2,420 m²,115 m²,,98.730.769,10-04-2021,2020 1ºSem,67,-33.4571,-70.5641
418,Código: 202374972,Departamento,Departamento en Arriendo La Reina - Metropolitana Ver ubicación,Paula Jaraquemada / Blest Gana,UF 38,$ 1.122.120,3,3,,94 m²,"158,4 m²",89.211.990,16-03-2021,,,-33.4562,-70.5681
419,Código: 2576921,Casa,Casa en Arriendo La Reina - Metropolitana Ver ubicación,SECTOR TOBALABA,$ 2.500.000,"UF 84,66",3,2,230 m²,480 m²,,220.972.255,03-03-2021,2020 1ºSem,61,-33.4522,-70.5621
420,Código: 11779,Departamento,Departamento en Arriendo Santiago - Metropolitana Ver ubicación,Rosas,$ 300.000,"UF 10,16",1,1,,38 m²,38 m²,,05-11-2020,2020 1ºSem,36,-33.4369,-70.6723
421,Código: 11777,Departamento,Departamento en Arriendo Santiago - Metropolitana Ver ubicación,Rosas,$ 300.000,"UF 10,16",1,1,,38 m²,38 m²,,05-11-2020,2020 1ºSem,36,-33.4369,-70.6723
422,Código: 69,Departamento,Departamento en Arriendo Santiago - Metropolitana Ver ubicación,METRO ÑUBLE,$ 250.000,"UF 8,47",1,1,,30 m²,30 m²,,08-06-2021,2020 1ºSem,38,-33.4351,-70.6748
423,,,,Rosas,$ 380.000,"UF 12,87",2,1,,42 m²,42 m²,,05-11-2020,2020 1ºSem,36,-33.4369,-70.6723
424,Código: 11778,Departamento,Departamento en Arriendo Santiago - Metropolitana Ver ubicación,Rosas,$ 380.000,"UF 12,87",2,1,,42 m²,42 m²,,05-11-2020,2020 1ºSem,36,-33.4369,-70.6723
425,,,,,,,,,,38 m²,38 m²,,05-11-2020,,,-33.4369,-70.6723
426,Código: 11283,Departamento,Departamento en Arriendo Santiago - Metropolitana Ver ubicación,Rosas,$ 380.000,"UF 12,87",2,1,,42 m²,42 m²,,05-11-2020,2020 1ºSem,36,-33.4369,-70.6723
427,Código: EB-HS5704,Departamento,Departamento en Arriendo Lo Barnechea - Metropolitana Ver ubicación,La Dehesa.,"UF 19,5",$ 575.824,1,1,,45 m²,,,17-06-2021,2020 1ºSem,90,-33.3496,-70.5228
428,,,,METRO IRARRAZAVAL,$ 520.000,"UF 17,61",2,2,,60 m²,69 m²,67.483.131,10-06-2021,2020 1ºSem,59,-33.4508,-70.6297
429,Código: 202078426,Departamento,Departamento en Arriendo Ñuñoa - Metropolitana Ver ubicación,BUSTAMANTE-IRARRAZAVAL-Ñuñoa,$ 590.000,"UF 19,98",2,2,,50 m²,55 m²,75.857.662,19-05-2021,2020 1ºSem,59,-33.4521,-70.628
430,Código: 1028018158-33,Departamento,Departamento en Arriendo Ñuñoa - Metropolitana Ver ubicación,Lo encalada,$ 430.000,"UF 14,56",3,1,,63 m²,63 m²,31.946.382,04-05-2021,2020 1ºSem,68,-33.4537,-70.6251
431,,,,,,:precioDespliegue:,2,2,,50 m²,55 m²,75.857.662,19-05-2021,,,-33.4524,-70.6278
432,Código: 202374879,Departamento,Departamento en Arriendo Ñuñoa - Metropolitana Ver ubicación,Avda Matta con Bustamante,$ 430.000,"UF 14,56",2,2,,56 m²,61 m²,52.396.687,13-03-2021,2020 1ºSem,59,-33.45434985,-70.62881041
433,Código: FAM1898,Departamento,Departamento en Arriendo Valparaíso - Valparaiso Ver ubicación,Metro Irarrázaval - Jose Domingo Cañas,$ 620.000,UF 21,3,2,,88 m²,92 m²,,23-06-2020,,,-33.4556,-70.6232
434,Código: 1028063005-73,Departamento,Departamento en Arriendo Ñuñoa - Metropolitana Ver ubicación,Condell,$ 380.000,"UF 12,87",1,1,,42 m²,42 m²,34.952.696,22-06-2021,2020 1ºSem,68,-33.4522,-70.6242
435,Código: 202078497,Departamento,Departamento en Arriendo Ñuñoa - Metropolitana Ver ubicación,DEPARTAMENTO ALMAGRO NUEVO RECIEN ENTREGADO,$ 395.000,"UF 13,38",1,1,,35 m²,35 m²,201.364.165,27-05-2021,2020 1ºSem,59,-33.4515,-70.6275
436,Código: 202053726,Departamento,Departamento en Arriendo Ñuñoa - Metropolitana Ver ubicación,Condell / Irarrázaval.,"UF 11,86",$ 350.219,1,1,,36 m²,40 m²,38.702.623,13-03-2021,2020 1ºSem,68,-33.4521,-70.6242
437,Código: 53437,Departamento,Departamento en Arriendo Ñuñoa - Metropolitana Ver ubicación,Tegualda/Barrio Italia,$ 450.000,"UF 15,24",2,1,,55 m²,,46.676.186,30-06-2021,2020 1ºSem,59,-33.4507,-70.6226
438,Código: 202053111,Departamento,Departamento en Arriendo Ñuñoa - Metropolitana Ver ubicación,Matta Oriente/ Av Irarrázaval,$ 530.000,"UF 17,95",2,2,,65 m²,68 m²,64.542.331,08-05-2021,2020 1ºSem,68,-33.4541,-70.6222
439,Código: 202053199,Departamento,Departamento en Arriendo Ñuñoa - Metropolitana Ver ubicación,Amoblado/Metro Irarrázaval,$ 450.000,"UF 15,24",2,1,,59 m²,59 m²,39.292.109,02-06-2021,2020 1ºSem,59,-33.4521,-70.6298
440,Código: 1028046041-69,Casa,Casa en Arriendo Lo Barnechea - Metropolitana Ver ubicación,Camino el Cajón,UF 120,$ 3.543.537,5,5,3.500 m²,500 m²,,267.277.082,24-09-2020,2020 1ºSem,74,-33.3605,-70.4801
441,Código: 202373123,Departamento,Departamento en Arriendo Vitacura - Metropolitana Ver ubicación,Las Condes/San Damián,UF 46,$ 1.358.356,3,3,,140 m²,166 m²,216.588.790,18-04-2021,2020 1ºSem,102,-33.3743,-70.5259
442,Código: EB-HM2707,Departamento,Departamento en Arriendo Vitacura - Metropolitana Ver ubicación,San Damián.,"UF 26,38",$ 778.987,2,2,,83 m²,,,24-06-2021,2020 1ºSem,82,-33.3768,-70.5249
443,Código: 202074759,Departamento,Departamento en Arriendo Las Condes - Metropolitana Ver ubicación,SAN DAMIAN,$ 2.500.000,"UF 84,66",5,4,,230 m²,330 m²,215.025.047,04-07-2020,2020 1ºSem,82,-33.377,-70.5256
444,Código: 202134652,Departamento,Departamento en Arriendo Las Condes - Metropolitana Ver ubicación,Amoblado San Damián /Colegio Los Andes,$ 1.250.000,"UF 42,33",3,3,,125 m²,145 m²,,17-06-2020,,,-33.3754,-70.5258
445,Código: 202045463,Departamento,Departamento en Arriendo Santiago - Metropolitana Ver ubicación,San Isidro / Marín,$ 399.000,"UF 13,51",2,2,,43 m²,2 m²,33.708.154,18-04-2021,2020 1ºSem,55,-33.4486,-70.6441
446,Código: 202045331,Departamento,Departamento en Arriendo Santiago - Metropolitana Ver ubicación,San Isidro / Alonso Ovalle,$ 250.000,"UF 8,47",1,1,,38 m²,38 m²,28.122.367,23-02-2021,2020 1ºSem,50,-33.4447,-70.6446
447,Código: 14748,Departamento,Departamento en Arriendo Santiago - Metropolitana Ver ubicación,SAN FRANCISCO,$ 370.000,"UF 12,53",2,2,,56 m²,56 m²,48.993.828,05-11-2020,2020 1ºSem,55,-33.4468,-70.6469
448,,,,,,,,,,,,33.382.780,17-06-2021,,,-33.4487,-70.6415
449,Código: 28213,Departamento,Departamento en Arriendo Santiago - Metropolitana Ver ubicación,Eleuterio Ramirez,$ 300.000,"UF 10,16",1,1,,40 m²,40 m²,34.176.283,13-06-2021,2020 1ºSem,55,-33.4484,-70.6472
450,Código: 202707124,Departamento,Departamento en Arriendo Santiago - Metropolitana Ver ubicación,San Isidro / Marín / Metro Santa Lucía,UF 10,$ 295.294,1,1,,31 m²,33 m²,22.172.181,31-05-2021,2020 1ºSem,55,-33.4476,-70.6435
451,,,,,:precioUF:,"UF 15,24",2,1,,40 m²,40 m²,707.994,19-05-2021,,,-33.4472,-70.6484
452,Código: 51949,Departamento,Departamento en Arriendo Santiago - Metropolitana Ver ubicación,Granados/Carmen,$ 270.000,"UF 9,14",1,1,,38 m²,,26.727.162,24-03-2021,2020 1ºSem,50,-33.4456,-70.6433
453,Código: 202033894,Departamento,Departamento en Arriendo Santiago - Metropolitana Ver ubicación,EXCELENTE UBICACIÓN,$ 360.000,"UF 12,19",1,1,,42 m²,42 m²,32.421.604,20-06-2021,2020 1ºSem,55,-33.4484,-70.6446
454,Código: 202035722,Departamento,Departamento en Arriendo Santiago - Metropolitana Ver ubicación,San Francisco - Tarapaca,UF 20,$ 590.589,2,2,,55 m²,58 m²,58.621.935,28-09-2020,2020 1ºSem,55,-33.44737053,-70.64720062
455,,,,,,,,,,,,,,,,,
456,Código: 48378,Departamento,Departamento en Arriendo Santiago - Metropolitana Ver ubicación,Padre Alonso de Ovalle/Metro U de chile,$ 400.000,"UF 13,55",2,2,,60 m²,,44.187.645,25-06-2021,2020 1ºSem,50,-33.4453,-70.6468
457,,,,,,,,,,,,,,,,,-70.6438
458,Código: 202005757,Departamento,Departamento en Arriendo Santiago - Metropolitana Ver ubicación,San Francisco esquina Tarapacá!!!! Metro Sata Lucia,$ 250.000,"UF 8,47",1,1,,52 m²,52 m²,31.164.811,09-06-2021,2020 1ºSem,55,-33.4473,-70.6469
459,Código: 202373782,Departamento,Departamento en Arriendo Santiago - Metropolitana Ver ubicación,Tarapacá,$ 330.000,"UF 11,18",2,1,,53 m²,54 m²,33.302.745,25-01-2021,2020 1ºSem,55,-33.4484,-70.6468
460,Código: 1028024101-33,Departamento,Departamento en Arriendo Santiago - Metropolitana Ver ubicación,San Francisco,$ 370.000,"UF 12,53",2,2,,52 m²,52 m²,40.991.918,11-06-2021,2020 1ºSem,55,-33.449,-70.6471
461,Código: :codigo:,,Departamento en Arriendo Santiago - Metropolitana Ver ubicación,"SAN FRANCISCO esquina Tarapacá 2 dorm 2 baños, ESTACIONAMIENTO opcional NO incluido en el precio.",$ 320.000,"UF 10,84",2,2,,"40,8 m²","40,8 m²",46.380.218,13-05-2021,2020 1ºSem,55,-33.4473,-70.6469
462,Código: 1028060037-62,Departamento,Departamento en Arriendo Santiago - Metropolitana Ver ubicación,Cóndor con San Francisco - Metro Parque Almagro,$ 320.000,"UF 10,84",1,1,,32 m²,32 m²,21.941.685,20-05-2021,2020 1ºSem,55,-33.4495,-70.6467
463,Código: 49005,Departamento,Departamento en Arriendo Santiago - Metropolitana Ver ubicación,Alonso de Ovalle/Metro U de Chile,$ 320.000,"UF 10,84",1,1,,37 m²,,28.680.858,25-06-2021,2020 1ºSem,55,-33.4462,-70.6488
464,,,,,:precioUF:,:precioDespliegue:,:dormitoriosText:,:,:superficieTerreno: m²,:metrosUtiles: m²,:metrosConstruidos: m²,:avaluoFiscalTotalPesos:,:fechaPublicacionDespliegue:,,55,-33.4491,-70.6407
465,,,,,:precioUF:,:precioDespliegue:,:dormitoriosText:,:,:superficieTerreno: m²,:metrosUtiles: m²,:metrosConstruidos: m²,:avaluoFiscalTotalPesos:,:fechaPublicacionDespliegue:,,55,-33.4491,-70.6407
466,Código: 202005301,Departamento,Departamento en Arriendo Santiago - Metropolitana Ver ubicación,Tarapaca esquina Serrano,$ 240.000,"UF 8,13",1,1,,28 m²,29 m²,30.113.014,18-06-2021,2020 1ºSem,55,-33.4471,-70.6488
467,Código: 202375977,Departamento,Departamento en Arriendo Santiago - Metropolitana Ver ubicación,San Francisco,$ 230.000,"UF 7,79",1,1,,27 m²,27 m²,23.014.673,24-05-2021,2020 1ºSem,55,-33.4466,-70.6461
468,Código: 202376196,Departamento,Departamento en Arriendo Santiago - Metropolitana Ver ubicación,Metro Parque Almagro,$ 309.000,"UF 10,46",2,1,,44 m²,46 m²,42.117.388,08-06-2021,2020 1ºSem,55,-33.4491,-70.6476
469,Código: 202373056,Departamento,Departamento en Arriendo Santiago - Metropolitana Ver ubicación,Marcoleta con Carmen,$ 300.000,"UF 10,16",1,1,,45 m²,45 m²,34.826.571,07-12-2020,2020 1ºSem,50,-33.4433,-70.6421
470,,,,,:precioUF:,"UF 16,25",2,2,,67 m²,73 m²,,10-06-2021,,,-33.4487,-70.6481
471,Código: 202077422,Departamento,Departamento en Arriendo Santiago - Metropolitana Ver ubicación,Ovalle/San Francisco,UF 11,$ 324.824,1,1,,32 m²,35 m²,29.889.113,05-02-2021,2020 1ºSem,50,-33.446,-70.646
472,Código: 202330832,Departamento,Departamento en Arriendo Santiago - Metropolitana Ver ubicación,Centro Médico UC,$ 400.000,"UF 13,55",2,2,,53 m²,54 m²,52.655.080,25-09-2020,2020 1ºSem,50,-33.4454,-70.6445
473,Código: 41415,Casa,Casa en Arriendo Santiago - Metropolitana Ver ubicación,Carmen/San isidro,$ 3.900.000,"UF 132,07",5,3,351 m²,170 m²,,173.087.471,01-01-2021,,,-33.4457,-70.6432
474,Código: 202375743,Departamento,Departamento en Arriendo Santiago - Metropolitana Ver ubicación,Carmen/ Santa Victoria,$ 400.000,"UF 13,55",2,2,,65 m²,70 m²,42.079.464,06-05-2021,2020 1ºSem,55,-33.4489,-70.6415
475,,,,,,,,,,,,,,,,,-70.6481
476,Código: 50528,Departamento,Departamento en Arriendo Santiago - Metropolitana Ver ubicación,CARMEN/SANTA ISABEL,$ 395.000,"UF 13,38",1,2,,38 m²,,37.151.042,10-03-2021,2020 1ºSem,55,-33.4492,-70.6414
477,Código: 202371605,Departamento,Departamento en Arriendo Santiago - Metropolitana Ver ubicación,Santa Rosa - Tarapaca,$ 330.000,"UF 11,18",2,2,,54 m²,56 m²,35.436.030,30-09-2020,2020 1ºSem,55,-33.4466,-70.6461
478,Código: 202376167,Departamento,Departamento en Arriendo Santiago - Metropolitana Ver ubicación,Santa Victoria/ Bustamante,$ 430.000,"UF 14,56",2,2,,48 m²,48 m²,52.546.554,08-06-2021,2020 1ºSem,55,-33.4494,-70.6426
479,Código: 202033390,Departamento,Departamento en Arriendo Santiago - Metropolitana Ver ubicación,Cercano a Migraciones y Policia Internacional,$ 430.000,"UF 14,56",2,1,,50 m²,52 m²,,05-11-2020,2020 1ºSem,55,-33.4486,-70.6465
480,Código: 202375857,Departamento,Departamento en Arriendo Santiago - Metropolitana Ver ubicación,Sector San Isidro,$ 260.000,"UF 8,8",1,1,,36 m²,36 m²,37.456.276,12-06-2021,2020 1ºSem,55,-33.4489,-70.6425
481,Código: 6229499,Departamento,Departamento en Arriendo Santiago - Metropolitana Ver ubicación,"Manuel Antonio Tocornal 300 - 600, Santa Isabel, Santiago, RM (Metropolitana)",$ 295.000,"UF 9,99",1,1,,"30,6 m²","35,4 m²",,15-06-2021,2020 1ºSem,55,-33.4477,-70.641
482,Código: 202101822,Departamento,Departamento en Arriendo Santiago - Metropolitana Ver ubicación,"Cercano a Alameda, Estación Metro Santa Lucia",$ 215.000,"UF 7,28",1,1,,30 m²,30 m²,29.525.913,18-04-2021,2020 1ºSem,50,-33.4434,-70.6448
483,Código: 202375047,Departamento,Departamento en Arriendo Santiago - Metropolitana Ver ubicación,Tarapacá con Serrano,$ 360.000,"UF 12,19",2,2,,45 m²,48 m²,44.894.468,17-03-2021,2020 1ºSem,55,-33.4471,-70.6488
484,Código: 202376126,Departamento,Departamento en Arriendo Santiago - Metropolitana Ver ubicación,Metro Santa Lucía,$ 420.000,"UF 14,22",2,2,,58 m²,58 m²,46.688.996,02-06-2021,2020 1ºSem,50,-33.4448,-70.6464
485,Código: 1028024101-29,Departamento,Departamento en Arriendo Santiago - Metropolitana Ver ubicación,San Isidro,$ 315.000,"UF 10,67",1,1,,33 m²,33 m²,25.874.291,10-06-2021,2020 1ºSem,55,-33.4482,-70.6437
486,Código: 202045366,Departamento,Departamento en Arriendo Santiago - Metropolitana Ver ubicación,San Isidro / Alonso Ovalle,$ 250.000,"UF 8,47",1,1,,38 m²,38 m²,62.383.344,05-03-2021,2020 1ºSem,50,-33.4447,-70.6446
487,Código: 202375856,Departamento,Departamento en Arriendo Santiago - Metropolitana Ver ubicación,Metro Santa Lucía,$ 250.000,"UF 8,47",1,1,,27 m²,27 m²,663.671,12-05-2021,2020 1ºSem,55,-33.4464,-70.6453
488,Código: 1028024101-30,Departamento,Departamento en Arriendo Santiago - Metropolitana Ver ubicación,San Isidro,$ 450.000,"UF 15,24",2,2,,60 m²,60 m²,33.708.154,10-06-2021,2020 1ºSem,55,-33.4482,-70.6437
489,Código: 1028063005-69,Departamento,Departamento en Arriendo Santiago - Metropolitana Ver ubicación,San Isidro,$ 420.000,"UF 14,22",2,2,,63 m²,63 m²,61.627.356,27-05-2021,2020 1ºSem,50,-33.4454,-70.6444
490,Código: 1028063039-3,Departamento,Departamento en Arriendo Santiago - Metropolitana Ver ubicación,Tarapacá,$ 450.000,"UF 15,24",3,2,,75 m²,75 m²,48.887.711,06-05-2021,2020 1ºSem,48,-33.4472,-70.6498
491,Código: 6179075,Departamento,Departamento en Arriendo Santiago - Metropolitana Ver ubicación,"(adm) Marín / Tocornal, Santa Isabel, Santiago, RM (Metropolitana)",$ 295.000,"UF 9,99",1,1,,"30,3 m²","34,8 m²",,15-06-2021,2020 1ºSem,55,-33.4477,-70.641
492,Código: 202026879,Departamento,Departamento en Arriendo Santiago - Metropolitana Ver ubicación,Lastarria con Alameda,UF 90,$ 2.657.653,3,3,,186 m²,186 m²,120.572.102,20-03-2021,,,-33.44,-70.6411
493,Código: 202375258,Departamento,Departamento en Arriendo Santiago - Metropolitana Ver ubicación,San Isidro con Sara del Campo,$ 350.000,"UF 11,85",2,2,,50 m²,54 m²,4.598.022,01-04-2021,2020 1ºSem,50,-33.4446,-70.6443
494,,,Departamento en Arriendo Santiago - Metropolitana Ver ubicación,avenida santa rosa,$ 420.000,"UF 14,22",2,2,,56 m²,56 m²,,29-06-2021,2020 1ºSem,55,-33.449,-70.645
495,Código: 52715,Departamento,Departamento en Arriendo Santiago - Metropolitana Ver ubicación,Lira/Jofre,$ 360.000,"UF 12,19",1,1,,32 m²,,,11-05-2021,2020 1ºSem,50,-33.4457,-70.6404
496,Código: 202062594,Departamento,Departamento en Arriendo Las Condes - Metropolitana Ver ubicación,Fleming / Vichato,UF 30,$ 885.884,4,3,,140 m²,160 m²,78.407.938,12-03-2021,2020 1ºSem,75,-33.4255,-70.5575
497,Código: 202375842,Departamento,Departamento en Arriendo Estación Central - Metropolitana Ver ubicación,Metro Ecuador,$ 290.000,"UF 9,82",2,,,64 m²,64 m²,35.592.330,12-05-2021,2020 1ºSem,48,-33.455,-70.7001
